[
  {
    "id": "nightclubs-alibi-way-364180385",
    "type": "nightclub",
    "name": "Alibi",
    "regionId": "belfast",
    "regionLabel": "Belfast",
    "locationLabel": "23-31 Bradbury Place, Belfast, BT7 1RR",
    "lat": 54.588933,
    "lon": -5.935179,
    "wheelchairAccess": {
      "status": "yes",
      "confidence": "confirmed"
    },
    "websiteUrl": "https://alibibelfast.com",
    "instagramUrl": "https://instagram.com/alibibelfast"
  },
  {
    "id": "nightclubs-the-kremlin-node-4513738301",
    "type": "nightclub",
    "name": "The Kremlin",
    "regionId": "belfast",
    "regionLabel": "Belfast",
    "locationLabel": "96 Donegall Street, Belfast, BT1 2GW",
    "lat": 54.603896,
    "lon": -5.930842,
    "websiteUrl": "https://www.kremlin-belfast.com",
    "instagramUrl": "https://instagram.com/kremlinbelfast"
  },
  {
    "id": "nightclubs-the-limelight-way-256651844",
    "type": "nightclub",
    "name": "The Limelight",
    "regionId": "belfast",
    "regionLabel": "Belfast",
    "locationLabel": "17A Ormeau Avenue, Belfast, BT2 8HD",
    "lat": 54.592863,
    "lon": -5.928543,
    "wheelchairAccess": {
      "status": "limited",
      "confidence": "confirmed"
    },
    "websiteUrl": "https://www.limelightbelfast.com"
  },
  {
    "id": "nightclubs-cyprus-avenue-node-11925173866",
    "type": "nightclub",
    "name": "Cyprus Avenue",
    "regionId": "cork",
    "regionLabel": "Cork",
    "locationLabel": "113 Oliver Plunkett Street, Cork, T12 PY8A",
    "lat": 51.898343,
    "lon": -8.469812,
    "wheelchairAccess": {
      "status": "yes",
      "confidence": "confirmed"
    },
    "websiteUrl": "https://www.cyprusavenue.ie",
    "instagramUrl": "https://instagram.com/cyprusavenuecork"
  },
  {
    "id": "nightclubs-voodoo-rooms-node-5814718249",
    "type": "nightclub",
    "name": "Voodoo Rooms",
    "regionId": "cork",
    "regionLabel": "Cork",
    "locationLabel": "74 Oliver Plunkett Street, Cork",
    "lat": 51.897296,
    "lon": -8.474138,
    "wheelchairAccess": {
      "status": "no",
      "confidence": "confirmed"
    },
    "websiteUrl": "https://voodoorooms.ie",
    "instagramUrl": "https://instagram.com/voodoorooms"
  },
  {
    "id": "nightclubs-block-node-13457855285",
    "type": "nightclub",
    "name": "Block",
    "regionId": "dublin",
    "regionLabel": "Dublin",
    "locationLabel": "13-14 Libery Lane, Dublin, D08 NF86",
    "lat": 53.336674,
    "lon": -6.266342,
    "websiteUrl": "https://www.blockdublin.com",
    "instagramUrl": "https://instagram.com/block.dublin"
  },
  {
    "id": "nightclubs-club-m-node-278857890",
    "type": "nightclub",
    "name": "Club M",
    "regionId": "dublin",
    "regionLabel": "Dublin",
    "locationLabel": "Cope Street, Dublin",
    "lat": 53.344813,
    "lon": -6.26233,
    "websiteUrl": "https://clubm.ie"
  },
  {
    "id": "copper-face-jacks-dublin",
    "type": "nightclub",
    "name": "Copper Face Jacks",
    "regionLabel": "Dublin",
    "locationLabel": "29-30 Harcourt Street, Dublin 2, D02 XV58",
    "lat": 53.335436,
    "lon": -6.2635091,
    "outdoorArea": {
      "type": "beer-garden",
      "confidence": "confirmed"
    },
    "websiteUrl": "https://copperfacejacks.ie",
    "instagramUrl": "https://instagram.com/copperfacejacks"
  },
  {
    "id": "nightclubs-d-two-node-775415426",
    "type": "nightclub",
    "name": "D-Two",
    "regionId": "dublin",
    "regionLabel": "Dublin",
    "locationLabel": "60 Harcourt Street, Dublin, D02 P902",
    "lat": 53.334454,
    "lon": -6.26284,
    "websiteUrl": "https://www.dtwonightclub.com"
  },
  {
    "id": "nightclubs-fitzsimons-node-6257799735",
    "type": "nightclub",
    "name": "Fitzsimons",
    "regionId": "dublin",
    "regionLabel": "Dublin",
    "locationLabel": "21-22 Wellington Quay, Dublin, D02 YK79",
    "lat": 53.345608,
    "lon": -6.265181,
    "wheelchairAccess": {
      "status": "no",
      "confidence": "confirmed"
    },
    "websiteUrl": "https://www.fitzsimonsbar.ie/nightclub",
    "instagramUrl": "https://instagram.com/fitzsimonsbar"
  },
  {
    "id": "nightclubs-house-dublin-node-4209884820",
    "type": "nightclub",
    "name": "House Dublin",
    "regionId": "dublin",
    "regionLabel": "Dublin",
    "locationLabel": "27 Leeson Street Lower, Dublin",
    "lat": 53.334011,
    "lon": -6.255159,
    "websiteUrl": "https://www.housedublin.ie",
    "instagramUrl": "https://instagram.com/housedublin2"
  },
  {
    "id": "nightclubs-index-dublin-node-13432368201",
    "type": "nightclub",
    "name": "Index Dublin",
    "regionId": "dublin",
    "regionLabel": "Dublin",
    "locationLabel": "57 Middle Abbey Street",
    "lat": 53.347986,
    "lon": -6.261852,
    "websiteUrl": "https://www.indexdublin.com",
    "instagramUrl": "https://instagram.com/indexdublin"
  },
  {
    "id": "opium-live-dublin",
    "type": "nightclub",
    "name": "Opium Live",
    "regionLabel": "Dublin",
    "locationLabel": "26 Wexford Street, Dublin 2, D02 HX93",
    "lat": 53.3366886,
    "lon": -6.2660368,
    "dj": {
      "status": "yes",
      "confidence": "confirmed"
    },
    "websiteUrl": "https://opium.ie/spaces/club",
    "instagramUrl": "https://instagram.com/opiumdublin"
  },
  {
    "id": "nightclubs-rain-node-778699198",
    "type": "nightclub",
    "name": "Rain",
    "regionId": "dublin",
    "regionLabel": "Dublin",
    "locationLabel": "33 Richmond Street South",
    "lat": 53.3304,
    "lon": -6.264112,
    "websiteUrl": "https://portobellohotel.ie/Dublin-Nightclub"
  },
  {
    "id": "nightclubs-tramline-node-2885169530",
    "type": "nightclub",
    "name": "Tramline",
    "regionId": "dublin",
    "regionLabel": "Dublin",
    "locationLabel": "D'Olier Street, Dublin",
    "lat": 53.346445,
    "lon": -6.257873,
    "wheelchairAccess": {
      "status": "no",
      "confidence": "confirmed"
    },
    "websiteUrl": "https://www.tramline.ie"
  },
  {
    "id": "nightclubs-yamamori-tengu-node-13432378601",
    "type": "nightclub",
    "name": "Yamamori Tengu",
    "regionId": "dublin",
    "regionLabel": "Dublin",
    "locationLabel": "37 Great Strand Street",
    "lat": 53.347006,
    "lon": -6.26391,
    "websiteUrl": "https://www.yamamori.ie/night-life"
  },
  {
    "id": "nightclubs-dna-node-6763852524",
    "type": "nightclub",
    "name": "DNA",
    "regionId": "galway",
    "regionLabel": "Galway",
    "locationLabel": "Ballalley Lane, Galway, H91 CFX5",
    "lat": 53.273967,
    "lon": -9.050429,
    "websiteUrl": "https://www.dnagalway.com"
  },
  {
    "id": "nightclubs-electric-node-8004189199",
    "type": "nightclub",
    "name": "Electric",
    "regionId": "galway",
    "regionLabel": "Galway",
    "locationLabel": "36 Abbeygate Street Upper, Galway",
    "lat": 53.273733,
    "lon": -9.05283,
    "wheelchairAccess": {
      "status": "yes",
      "confidence": "confirmed"
    },
    "websiteUrl": "https://electricgalway.com",
    "instagramUrl": "https://instagram.com/electricgalway"
  },
  {
    "id": "nightclubs-the-grand-node-6859936149",
    "type": "nightclub",
    "name": "The Killarney Grand",
    "regionId": "killarney",
    "regionLabel": "Killarney",
    "locationLabel": "17 Main Street, Killarney, Kerry, V93 X6FP",
    "lat": 52.058157,
    "lon": -9.509025,
    "wheelchairAccess": {
      "status": "no",
      "confidence": "confirmed"
    },
    "dj": {
      "status": "yes",
      "confidence": "confirmed"
    },
    "websiteUrl": "https://www.killarneygrand.com",
    "instagramUrl": "https://instagram.com/killarneygrandofficial"
  },
  {
    "id": "nightclubs-angel-lane-night-club-node-2177640720",
    "type": "nightclub",
    "name": "Angel Lane Night Club",
    "regionId": "limerick",
    "regionLabel": "Limerick",
    "locationLabel": "Robert Street, Limerick",
    "lat": 52.663735,
    "lon": -8.622965,
    "websiteUrl": "https://angellanenightclub.ie",
    "instagramUrl": "https://instagram.com/angellanenightclub"
  }
]
