[
  {
    "id": "5th-avenue-node-2444800137",
    "name": "5th Avenue",
    "lat": 53.9903627,
    "lon": -7.3605144
  },
  {
    "id": "5th-on-teeling-node-4116904540",
    "name": "5th on Teeling",
    "lat": 54.2701185,
    "lon": -8.471443
  },
  {
    "id": "13-on-the-green-node-9953660232",
    "name": "13 On The Green",
    "lat": 53.2742803,
    "lon": -9.047861
  },
  {
    "id": "22-bar-restaurant-node-10675853050",
    "name": "22 Bar & Restaurant",
    "lat": 53.3661312,
    "lon": -6.3895956
  },
  {
    "id": "51-main-street-node-7426157320",
    "name": "51 Main Street",
    "lat": 54.4801411,
    "lon": -8.2746801
  },
  {
    "id": "53-south-william-node-5729185009",
    "name": "53 South William",
    "lat": 53.34174,
    "lon": -6.2626634
  },
  {
    "id": "74-talbot-node-562072082",
    "name": "74 Talbot",
    "lat": 53.350879,
    "lon": -6.2529113
  },
  {
    "id": "101-chijczxtbgrcw0grz60bsfdm",
    "name": "101",
    "lat": 52.661551499999995,
    "lon": -8.6294709,
    "town": "Limerick",
    "county": "Limerick",
    "addressText": "101 O'Connell Street, Limerick, Co. Limerick, V94 PX2K",
    "googleFormattedAddress": "101 O'Connell St, Prior's-Land, Limerick, V94 PX2K",
    "sourceName": "101"
  },
  {
    "id": "a-golden-node-5816302788",
    "name": "A. Golden",
    "lat": 51.9045221,
    "lon": -8.9587118
  },
  {
    "id": "a1-bar-node-4030209342",
    "name": "A1 Bar",
    "lat": 52.6651408,
    "lon": -8.6089298
  },
  {
    "id": "abbey-house-node-3052028348",
    "name": "Abbey House",
    "lat": 53.6804474,
    "lon": -7.2267772
  },
  {
    "id": "aberdeen-bar-node-10962384934",
    "name": "Aberdeen Bar",
    "lat": 52.931982,
    "lon": -9.3447398
  },
  {
    "id": "acton-s-country-pub-node-12606608451",
    "name": "Acton’s Country Pub",
    "lat": 52.8796832,
    "lon": -6.3310482
  },
  {
    "id": "adam-s-bar-node-3381418424",
    "name": "Adam’s Bar",
    "lat": 52.1419932,
    "lon": -10.2687529
  },
  {
    "id": "admirals-node-12474267133",
    "name": "Admirals",
    "lat": 53.7145605,
    "lon": -6.3499253,
    "town": "Drogheda",
    "county": "Louth",
    "addressText": "Drogheda, Co. Louth",
    "googleFormattedAddress": "Drogheda, Co. Louth",
    "sourceName": "The Admirals"
  },
  {
    "id": "after-dark-node-999270526",
    "name": "After Dark",
    "lat": 53.1615585,
    "lon": -7.1899042
  },
  {
    "id": "ahern-s-node-10045844004",
    "name": "Ahern's",
    "lat": 52.1761313,
    "lon": -8.245615
  },
  {
    "id": "ahern-s-bar-node-710259029",
    "name": "Ahern's Bar",
    "lat": 52.6983092,
    "lon": -8.460997
  },
  {
    "id": "aidie-farrell-s-swan-tavern-node-1469863362",
    "name": "Aidie Farrell's Swan Tavern",
    "lat": 53.6722108,
    "lon": -7.9883263
  },
  {
    "id": "aj-s-bar-node-9334931555",
    "name": "AJ's Bar",
    "lat": 53.1486155,
    "lon": -7.5236902
  },
  {
    "id": "albert-lynch-s-node-2085839122",
    "name": "Albert Lynch's",
    "lat": 52.1378014,
    "lon": -8.6421268
  },
  {
    "id": "alfie-earl-s-bar-node-7966520451",
    "name": "Alfie Earl’s Bar",
    "lat": 52.6594163,
    "lon": -8.6319368
  },
  {
    "id": "alfies-node-3567268517",
    "name": "Alfies",
    "lat": 52.6214858,
    "lon": -8.6486518
  },
  {
    "id": "alfred-s-node-5787220032",
    "name": "Alfred's",
    "lat": 53.342004,
    "lon": -6.2866892
  },
  {
    "id": "alice-brady-s-node-11067770137",
    "name": "Alice Brady's",
    "lat": 52.3230981,
    "lon": -6.6546844
  },
  {
    "id": "all-my-friends-node-1373977813",
    "name": "All My Friends",
    "lat": 53.3406636,
    "lon": -6.27815
  },
  {
    "id": "all-star-bar-node-13392648158",
    "name": "All Star Bar",
    "lat": 52.5020505,
    "lon": -9.3707217
  },
  {
    "id": "amber-lounge-node-11500381911",
    "name": "Amber Lounge",
    "lat": 51.9002373,
    "lon": -8.2914204
  },
  {
    "id": "ambrose-moloney-s-node-313218670",
    "name": "Ambrose Moloney's",
    "lat": 52.6450894,
    "lon": -6.2294412
  },
  {
    "id": "an-bhun-abhainn-node-3016785564",
    "name": "An Bhun Abhainn",
    "lat": 53.7633008,
    "lon": -9.8086663
  },
  {
    "id": "an-bodhra-n-node-486637351",
    "name": "An Bodhrán",
    "lat": 51.8976405,
    "lon": -8.471974
  },
  {
    "id": "an-bodhra-n-node-1953776313",
    "name": "An Bodhrán",
    "lat": 52.2663276,
    "lon": -8.2719184
  },
  {
    "id": "an-bonna-n-bui-node-542005890",
    "name": "An Bonnán Buí",
    "lat": 52.7681252,
    "lon": -8.3814241
  },
  {
    "id": "an-bothar-pub-guesthouse-node-2659636246",
    "name": "An Bothar Pub & Guesthouse",
    "lat": 52.2264761,
    "lon": -10.3070692
  },
  {
    "id": "an-brada-n-feasa-node-11819599202",
    "name": "An Bradán Feasa",
    "lat": 53.616772,
    "lon": -6.8646534
  },
  {
    "id": "an-bro-g-node-5814718248",
    "name": "An Bróg",
    "lat": 51.8973915,
    "lon": -8.4741106
  },
  {
    "id": "an-caislea-n-node-11154591857",
    "name": "An Caisleán",
    "lat": 53.091714,
    "lon": -8.2210013
  },
  {
    "id": "an-cappagh-nua-node-1615384981",
    "name": "An Cappagh Nua",
    "lat": 53.395102,
    "lon": -6.3111759
  },
  {
    "id": "an-cearno-g-node-2625321687",
    "name": "An Cearnóg",
    "lat": 52.2693155,
    "lon": -9.7069106
  },
  {
    "id": "an-chistin-node-786682157",
    "name": "An Chistin",
    "lat": 53.2632939,
    "lon": -9.5995699
  },
  {
    "id": "an-cosa-n-node-4511368747",
    "name": "An Cosán",
    "lat": 53.2788418,
    "lon": -6.4010508
  },
  {
    "id": "an-cruiscin-lan-pub-node-6147512486",
    "name": "An Cruiscin Lan Pub",
    "lat": 52.088607,
    "lon": -7.8509183
  },
  {
    "id": "an-dara-fidil-node-13677273732",
    "name": "An Dara Fidil",
    "lat": 54.6015192,
    "lon": -5.9261656
  },
  {
    "id": "an-droichead-beag-node-877738390",
    "name": "An Droichead Beag",
    "lat": 52.1410132,
    "lon": -10.2670816
  },
  {
    "id": "an-file-node-2173875364",
    "name": "An File",
    "lat": 53.7995394,
    "lon": -9.524518
  },
  {
    "id": "an-geata-arundel-node-9700234608",
    "name": "An Geata Arundel",
    "lat": 52.2604531,
    "lon": -7.1112004
  },
  {
    "id": "an-goba-n-saor-node-688867528",
    "name": "An Gobán Saor",
    "lat": 53.1571951,
    "lon": -6.9119729
  },
  {
    "id": "an-nead-node-2474944173",
    "name": "An Nead",
    "lat": 53.2442043,
    "lon": -9.3070288
  },
  {
    "id": "an-poc-fada-node-11928318723",
    "name": "An Poc Fada",
    "lat": 52.6510886,
    "lon": -7.2517226
  },
  {
    "id": "an-poiti-n-stil-chijqqrwvx90z0gr55b53mzv",
    "name": "An Poitín Stil",
    "lat": 53.2811683,
    "lon": -6.4768954,
    "town": "Rathcoole",
    "county": "Dublin",
    "addressText": "Naas Road, Rathcoole, Co. Dublin, D24 XNR0",
    "googleFormattedAddress": "Main St, Tootenhill, Rathcoole, Co. Dublin, D24 XNR0",
    "sourceName": "An Poitín Stil"
  },
  {
    "id": "an-puc-fada-node-6184439396",
    "name": "An Puc Fada",
    "lat": 52.3711958,
    "lon": -8.3467273
  },
  {
    "id": "an-pu-ca-n-node-9953660243",
    "name": "An Púcán",
    "lat": 53.2745082,
    "lon": -9.047454
  },
  {
    "id": "an-re-alt-node-1889256374",
    "name": "An Réalt",
    "lat": 53.2604289,
    "lon": -9.6076366
  },
  {
    "id": "an-scolaire-bocht-node-2073941585",
    "name": "An Scolaire Bocht",
    "lat": 54.0522651,
    "lon": -7.8032859
  },
  {
    "id": "an-seanachi-node-583066614",
    "name": "An Seanachi",
    "lat": 52.0450398,
    "lon": -7.6574116
  },
  {
    "id": "an-shebeen-node-12791267029",
    "name": "An Shebeen",
    "lat": 54.2236024,
    "lon": -9.9877041
  },
  {
    "id": "an-sibin-node-565490744",
    "name": "An Sibin",
    "lat": 51.5028766,
    "lon": -9.3502665
  },
  {
    "id": "an-sibin-node-1425132150",
    "name": "An Sibin",
    "lat": 51.9479069,
    "lon": -8.6596721
  },
  {
    "id": "an-sibi-n-node-12852648766",
    "name": "An Sibín",
    "lat": 51.8967106,
    "lon": -8.4728335
  },
  {
    "id": "an-siopa-dubh-node-667391363",
    "name": "An Siopa Dubh",
    "lat": 51.779154,
    "lon": -10.0342499
  },
  {
    "id": "an-spailpi-n-fa-nach-chij-ymcbxqqregruix7j06v",
    "name": "An Spailpín Fánach",
    "lat": 51.8965885,
    "lon": -8.4765467,
    "town": "Cork",
    "county": "Cork",
    "addressText": "27-29 South Main Street, Cork, Co. Cork, T12 DYX9",
    "googleFormattedAddress": "29 S Main St, Centre, Cork",
    "sourceName": "An Spailpín Fánach"
  },
  {
    "id": "an-teach-beag-node-2211738622",
    "name": "An Teach Beag",
    "lat": 52.269574,
    "lon": -9.705449
  },
  {
    "id": "an-tigi-n-node-1591455618",
    "name": "An Tigín",
    "lat": 51.5269035,
    "lon": -9.5482681
  },
  {
    "id": "an-tochar-ban-node-278711270",
    "name": "An Tochar Ban",
    "lat": 52.3694178,
    "lon": -9.7717831
  },
  {
    "id": "an-tuath-nua-node-10062224404",
    "name": "An Tuath Nua",
    "lat": 55.1363987,
    "lon": -7.4559994
  },
  {
    "id": "an-uisce-beatha-node-10175872787",
    "name": "An Uisce Beatha",
    "lat": 52.2635825,
    "lon": -7.1179594
  },
  {
    "id": "anchor-bar-node-1617663521",
    "name": "Anchor Bar",
    "lat": 55.1828395,
    "lon": -6.7185615
  },
  {
    "id": "anchor-inn-node-347426469",
    "name": "Anchor Inn",
    "lat": 52.807124,
    "lon": -8.4401285
  },
  {
    "id": "anchor-tavern-node-1809718993",
    "name": "Anchor Tavern",
    "lat": 51.6796739,
    "lon": -9.451839
  },
  {
    "id": "andersonstown-social-club-node-2686062426",
    "name": "Andersonstown Social Club",
    "lat": 54.5749767,
    "lon": -5.9879183
  },
  {
    "id": "andy-s-node-8735828083",
    "name": "Andy's",
    "lat": 52.468039,
    "lon": -7.2012154
  },
  {
    "id": "angler-s-rest-node-4952552579",
    "name": "Angler’s Rest",
    "lat": 53.3591428,
    "lon": -6.3587854
  },
  {
    "id": "anglers-arms-node-7460660384",
    "name": "Anglers Arms",
    "lat": 55.2059369,
    "lon": -6.240814
  },
  {
    "id": "ann-s-place-node-330960080",
    "name": "Ann’s Place",
    "lat": 52.9923106,
    "lon": -6.9839558
  },
  {
    "id": "annesley-house-chijyqe6r18oz0grruyl379f",
    "name": "Annesley House",
    "lat": 53.359639099999995,
    "lon": -6.2403202,
    "town": "Dublin",
    "county": "Dublin",
    "addressText": "70 North Strand Road, Dublin, Co. Dublin, D03 K8P4",
    "googleFormattedAddress": "70 N Strand Rd, North Strand, Dublin, D03 K8P4",
    "sourceName": "Annesley House"
  },
  {
    "id": "annie-kehoe-s-node-7781884937",
    "name": "Annie Kehoe's",
    "lat": 52.3539392,
    "lon": -7.6970255
  },
  {
    "id": "annie-lynn-s-bar-node-3215268464",
    "name": "Annie Lynn’s Bar",
    "lat": 54.6539805,
    "lon": -8.107785
  },
  {
    "id": "annie-mac-s-chijrbot5yoqregryz-r3hp1",
    "name": "Annie Mac's",
    "lat": 51.890698099999994,
    "lon": -8.488110599999999,
    "town": "Cork",
    "county": "Cork",
    "addressText": "Glasheen Road, Cork, Co. Cork, T12 PK63",
    "googleFormattedAddress": "27 Bandon Rd, Denroches Cross, Cork",
    "sourceName": "Annie Mac’s"
  },
  {
    "id": "annie-may-s-node-3139297357",
    "name": "Annie May’s",
    "lat": 53.2997095,
    "lon": -6.5009707
  },
  {
    "id": "annie-s-node-4838856749",
    "name": "Annie’s",
    "lat": 55.1885712,
    "lon": -7.0407504
  },
  {
    "id": "annora-s-bar-and-cafe-node-4816649823",
    "name": "Annora's Bar and Café",
    "lat": 54.8372073,
    "lon": -8.4447568
  },
  {
    "id": "anseo-node-446783419",
    "name": "Anseo",
    "lat": 53.3353226,
    "lon": -6.264995
  },
  {
    "id": "anthony-doherty-node-11330082949",
    "name": "Anthony Doherty",
    "lat": 54.1201569,
    "lon": -6.7365298
  },
  {
    "id": "anthony-s-node-1431150474",
    "name": "Anthony's",
    "lat": 52.3876397,
    "lon": -7.343913
  },
  {
    "id": "anzac-bar-node-665791504",
    "name": "Anzac Bar",
    "lat": 55.2013476,
    "lon": -6.2521717
  },
  {
    "id": "araglin-pub-node-5987277486",
    "name": "Araglin Pub",
    "lat": 52.2072647,
    "lon": -8.0816175
  },
  {
    "id": "ardattin-inn-node-13096168318",
    "name": "Ardattin Inn",
    "lat": 52.753628,
    "lon": -6.7068166
  },
  {
    "id": "ardgroom-village-node-12500534956",
    "name": "Ardgroom Village",
    "lat": 51.7340838,
    "lon": -9.8966622
  },
  {
    "id": "ardhu-bar-node-6708215936",
    "name": "Ardhú bar",
    "lat": 52.6676736,
    "lon": -8.6497446
  },
  {
    "id": "ardlea-inn-node-1529996763",
    "name": "Ardlea Inn",
    "lat": 53.3866526,
    "lon": -6.2115954
  },
  {
    "id": "arkle-bar-node-629030586",
    "name": "Arkle Bar",
    "lat": 53.3801579,
    "lon": -6.5877438
  },
  {
    "id": "arlington-bar-restaurant-node-279915988",
    "name": "Arlington Bar & Restaurant",
    "lat": 53.3472522,
    "lon": -6.2609325
  },
  {
    "id": "armshaw-s-pub-node-4019631215",
    "name": "Armshaw's Pub",
    "lat": 52.5816705,
    "lon": -8.1673926
  },
  {
    "id": "arthur-guinness-bar-node-13246132939",
    "name": "Arthur Guinness Bar",
    "lat": 53.4280097,
    "lon": -6.2455995
  },
  {
    "id": "arthur-mayne-s-node-3028480445",
    "name": "Arthur Mayne’s",
    "lat": 53.3216783,
    "lon": -6.2352699
  },
  {
    "id": "arthur-mayne-s-pharmacy-node-5763268659",
    "name": "Arthur Mayne's Pharmacy",
    "lat": 51.8975859,
    "lon": -8.469899
  },
  {
    "id": "arthurs-curated",
    "name": "Arthur’s",
    "lat": 53.3431265,
    "lon": -6.2817019
  },
  {
    "id": "arthur-s-bar-node-10238803387",
    "name": "Arthur’s Bar",
    "lat": 53.3636164,
    "lon": -6.4888092
  },
  {
    "id": "arty-s-bar-node-9682647274",
    "name": "Arty’s Bar",
    "lat": 51.8882085,
    "lon": -8.5884641
  },
  {
    "id": "arundel-s-by-the-pier-node-5667750197",
    "name": "Arundel’s by the Pier",
    "lat": 51.6000178,
    "lon": -9.6323833
  },
  {
    "id": "ashes-bar-node-1324794806",
    "name": "Ashes Bar",
    "lat": 52.0562806,
    "lon": -9.940134
  },
  {
    "id": "astro-park-sports-bar-chijqy4nwmupz0gr2umqhubp",
    "name": "Astro Park Sports Bar",
    "lat": 53.397205400000004,
    "lon": -6.2300711,
    "addressText": "Oscar Traynor Rd, Kilmore, Dublin 17, D17 Y998",
    "googleFormattedAddress": "Oscar Traynor Rd, Kilmore, Dublin 17, D17 Y998",
    "sourceName": "Astro Park Sports Bar"
  },
  {
    "id": "athenry-golf-club-node-5053386121",
    "name": "Athenry Golf Club",
    "lat": 53.282914,
    "lon": -8.8456003
  },
  {
    "id": "atkinsons-node-10734629648",
    "name": "Atkinsons",
    "lat": 54.1594312,
    "lon": -6.8180184
  },
  {
    "id": "atlantic-bar-node-10701895150",
    "name": "Atlantic Bar",
    "lat": 53.2584316,
    "lon": -9.085023
  },
  {
    "id": "atlantic-bar-node-11187645664",
    "name": "Atlantic Bar",
    "lat": 54.9506815,
    "lon": -8.3607541
  },
  {
    "id": "auburn-lodge-node-1301276424",
    "name": "Auburn Lodge",
    "lat": 52.9400278,
    "lon": -7.7878181
  },
  {
    "id": "auntie-s-node-839592088",
    "name": "Auntie's",
    "lat": 51.9250889,
    "lon": -8.6078064
  },
  {
    "id": "aunty-lena-s-bar-node-1000810532",
    "name": "Aunty Lena’s Bar",
    "lat": 52.5641866,
    "lon": -8.7908976
  },
  {
    "id": "autobahn-roadhouse-node-1484733482",
    "name": "Autobahn Roadhouse",
    "lat": 53.3897043,
    "lon": -6.2712214
  },
  {
    "id": "avenue-bar-node-1012964252",
    "name": "Avenue Bar",
    "lat": 51.9000539,
    "lon": -8.4893339
  },
  {
    "id": "avenue-inn-node-2423374174",
    "name": "Avenue Inn",
    "lat": 53.9958806,
    "lon": -6.3960015
  },
  {
    "id": "averno-house-node-1610356212",
    "name": "Averno House",
    "lat": 53.6790772,
    "lon": -6.2398384
  },
  {
    "id": "aye-ii-node-10309466033",
    "name": "Aye (ii)",
    "lat": 51.8952007,
    "lon": -8.4657374
  },
  {
    "id": "b-mcconnell-sons-node-11361568547",
    "name": "B McConnell & Sons",
    "lat": 54.0424855,
    "lon": -6.8707437
  },
  {
    "id": "b-mcdonnell-node-290490326",
    "name": "B McDonnell",
    "lat": 53.7170153,
    "lon": -6.3438246,
    "town": "Drogheda",
    "county": "Louth",
    "addressText": "Drogheda, Co. Louth",
    "googleFormattedAddress": "Drogheda, Co. Louth",
    "sourceName": "B Mcdonnell"
  },
  {
    "id": "b-hopkins-node-10044247621",
    "name": "B. Hopkins",
    "lat": 54.212765,
    "lon": -9.0930186
  },
  {
    "id": "bad-bob-s-node-1423559556",
    "name": "Bad Bob's",
    "lat": 53.3450328,
    "lon": -6.2659898
  },
  {
    "id": "bagnall-s-pub-node-899428722",
    "name": "Bagnall's Pub",
    "lat": 53.4161277,
    "lon": -7.2978234
  },
  {
    "id": "bailey-s-bar-bistro-node-10926065352",
    "name": "Bailey’s Bar & Bistro",
    "lat": 52.9986108,
    "lon": -6.9597601
  },
  {
    "id": "baily-s-corner-node-5184867905",
    "name": "Baily’s Corner",
    "lat": 52.2692711,
    "lon": -9.7038773
  },
  {
    "id": "bainbrick-s-node-301770426",
    "name": "Bainbrick’s",
    "lat": 53.5259808,
    "lon": -7.3360375
  },
  {
    "id": "baker-street-bar-lounge-node-7487552619",
    "name": "Baker Street Bar & Lounge",
    "lat": 51.9040174,
    "lon": -8.4963269
  },
  {
    "id": "baker-s-bar-node-2133732714",
    "name": "Baker’s Bar",
    "lat": 52.3535504,
    "lon": -7.6982851
  },
  {
    "id": "balbriggan-golf-clubhouse-bar-node-11088881129",
    "name": "Balbriggan Golf Clubhouse Bar",
    "lat": 53.5958142,
    "lon": -6.182455,
    "town": "Balbriggan",
    "county": "Dublin",
    "addressText": "Balbriggan, Co. Dublin",
    "googleFormattedAddress": "Balbriggan, Co. Dublin",
    "sourceName": "Balbriggan Golf Clubhouse Bar"
  },
  {
    "id": "ball-alley-house-node-506824954",
    "name": "Ball Alley House",
    "lat": 53.3554596,
    "lon": -6.4546703
  },
  {
    "id": "ballast-bank-node-10870950290",
    "name": "Ballast Bank",
    "lat": 52.3360273,
    "lon": -6.4569088
  },
  {
    "id": "ballinkillen-community-centre-members-lounge-node-1512754158",
    "name": "Ballinkillen Community Centre Members' Lounge",
    "lat": 52.6500695,
    "lon": -6.9299283
  },
  {
    "id": "ballinteer-house-node-132186038",
    "name": "Ballinteer House",
    "lat": 53.2747643,
    "lon": -6.2545959
  },
  {
    "id": "ballintemple-inn-node-3915222728",
    "name": "Ballintemple Inn",
    "lat": 52.4575406,
    "lon": -9.0659913
  },
  {
    "id": "bally-hi-bar-node-1944807578",
    "name": "Bally-Hi Bar",
    "lat": 52.2702712,
    "lon": -8.0993696
  },
  {
    "id": "ballycarney-inn-node-914851305",
    "name": "Ballycarney Inn",
    "lat": 52.5822508,
    "lon": -6.5786143
  },
  {
    "id": "ballyknockan-inn-node-1644182419",
    "name": "Ballyknockan Inn",
    "lat": 53.106506,
    "lon": -6.4998022
  },
  {
    "id": "ballymac-hotel-node-4025820387",
    "name": "Ballymac Hotel",
    "lat": 54.5813677,
    "lon": -6.1095199
  },
  {
    "id": "ballymore-inn-the-high-chaparral-node-339219607",
    "name": "Ballymore Inn/The high Chaparral",
    "lat": 51.8635236,
    "lon": -8.2533152
  },
  {
    "id": "baltinglass-inn-node-11064563381",
    "name": "Baltinglass Inn",
    "lat": 52.9398351,
    "lon": -6.7047714
  },
  {
    "id": "bank-house-bar-node-7959946182",
    "name": "Bank House & Bar",
    "lat": 54.4799327,
    "lon": -8.2760183
  },
  {
    "id": "bann-view-social-node-12277251433",
    "name": "Bann View Social",
    "lat": 55.1482867,
    "lon": -6.6780221
  },
  {
    "id": "bannon-s-node-5301130398",
    "name": "Bannon's",
    "lat": 52.6727605,
    "lon": -7.7126408
  },
  {
    "id": "bantry-bay-bar-node-1808564320",
    "name": "Bantry Bay Bar",
    "lat": 51.6802997,
    "lon": -9.4538211
  },
  {
    "id": "bar-node-4657027188",
    "name": "Bar",
    "lat": 53.6377583,
    "lon": -9.2448627
  },
  {
    "id": "bar-1661-node-635273448",
    "name": "Bar 1661",
    "lat": 53.3492625,
    "lon": -6.2704646
  },
  {
    "id": "bar-no-8-node-450242569",
    "name": "Bar No. 8",
    "lat": 53.2702585,
    "lon": -9.0516692
  },
  {
    "id": "bar-ramsbottoms-chijk9xfzncsxugr9hhwvvfn",
    "name": "Bar Ramsbottoms",
    "lat": 52.9605513,
    "lon": -7.2012968,
    "town": "Timahoe",
    "county": "Laois",
    "addressText": "Timahoe, Co. Laois, R32 F5WP",
    "googleFormattedAddress": "R426, Timahoe, Co. Laois",
    "sourceName": "Ramsbottom’s"
  },
  {
    "id": "bar-rua-chijqqw4ppwoz0grakhnyqr5",
    "name": "Bar Rua",
    "lat": 53.3410857,
    "lon": -6.2624407,
    "town": "Dublin",
    "county": "Dublin",
    "addressText": "32 Clarendon Street, Dublin, Co. Dublin, D02 HX66",
    "googleFormattedAddress": "32 Clarendon St, Dublin 2, D02 HX66",
    "sourceName": "Bar Rua"
  },
  {
    "id": "bar-tolka-node-280123269",
    "name": "Bar@Tolka",
    "lat": 53.3676758,
    "lon": -6.2512678
  },
  {
    "id": "barbarossa-node-5814718247",
    "name": "BarBarossa",
    "lat": 51.8972497,
    "lon": -8.4743609
  },
  {
    "id": "barcadia-node-11488296352",
    "name": "Barcadia",
    "lat": 51.8981457,
    "lon": -8.4812168
  },
  {
    "id": "barcode-node-1509769787",
    "name": "Barcode",
    "lat": 53.3629792,
    "lon": -6.2287076
  },
  {
    "id": "bardon-s-node-1028194568",
    "name": "Bardon’s",
    "lat": 53.1313768,
    "lon": -6.744417
  },
  {
    "id": "barge-node-1445758303",
    "name": "Barge",
    "lat": 53.9912884,
    "lon": -8.0658475
  },
  {
    "id": "barney-macs-node-11784670152",
    "name": "Barney Macs",
    "lat": 53.9317537,
    "lon": -7.4074764
  },
  {
    "id": "barr-an-chaladh-node-9930271234",
    "name": "Barr an Chaladh",
    "lat": 53.2751583,
    "lon": -9.0527915
  },
  {
    "id": "barr-na-sraide-inn-node-1536488985",
    "name": "Barr na Sraide Inn",
    "lat": 52.1428512,
    "lon": -10.2705623
  },
  {
    "id": "barrack-height-node-3381446612",
    "name": "Barrack Height",
    "lat": 52.1403987,
    "lon": -10.2661643
  },
  {
    "id": "barrett-s-node-13031822031",
    "name": "Barrett's",
    "lat": 52.2726144,
    "lon": -9.706867
  },
  {
    "id": "barrett-s-bar-node-5590303238",
    "name": "Barrett's Bar",
    "lat": 52.3389943,
    "lon": -6.4599982
  },
  {
    "id": "barrett-s-coachyard-inn-chijzfsgy8jexegrx2h44q9r",
    "name": "Barrett's Coachyard Inn",
    "lat": 52.6795859,
    "lon": -7.802009099999999,
    "town": "Thurles",
    "county": "Tipperary",
    "addressText": "Kickham Street, Thurles, Co. Tipperary, E41 H7R0",
    "googleFormattedAddress": "Thurles Townparks, Thurles, Co. Tipperary, E41 H7R0",
    "sourceName": "Barrett’s Coachyard Inn"
  },
  {
    "id": "barretts-node-1881113868",
    "name": "Barretts",
    "lat": 51.7648379,
    "lon": -8.6579407
  },
  {
    "id": "barry-s-of-douglas-node-291175341",
    "name": "Barry’s of Douglas",
    "lat": 51.8771841,
    "lon": -8.4361623
  },
  {
    "id": "barrys-node-5577164967",
    "name": "Barrys",
    "lat": 52.8786939,
    "lon": -8.2954384
  },
  {
    "id": "bartley-s-bar-node-768231200",
    "name": "Bartley’s Bar",
    "lat": 53.3410955,
    "lon": -6.2641191
  },
  {
    "id": "baurnafea-house-chijo75jpbh0z0grhgq-cekd",
    "name": "Baurnafea House",
    "lat": 53.2812049,
    "lon": -6.469071200000001,
    "town": "Rathcoole",
    "county": "Dublin",
    "addressText": "Main Street, Rathcoole, Co. Dublin, D24 DT72",
    "googleFormattedAddress": "Main St, Rathcoole, Co. Dublin",
    "sourceName": "The Baurnafea House"
  },
  {
    "id": "bay-view-inn-node-5555169873",
    "name": "Bay View Inn",
    "lat": 51.5807144,
    "lon": -9.703609
  },
  {
    "id": "bay-view-tavern-node-12947496079",
    "name": "Bay View Tavern",
    "lat": 54.0876573,
    "lon": -6.2587253
  },
  {
    "id": "bayside-inn-chijqxwnkeefz0grdetblpmo",
    "name": "Bayside Inn",
    "lat": 53.3889436,
    "lon": -6.1411371,
    "town": "Sutton",
    "county": "Dublin",
    "addressText": "Bayside Square North, Bayside, Sutton, Co. Dublin, D13 X8H4",
    "googleFormattedAddress": "Bayside Blvd N, Kilbarrack Lower, Dublin",
    "sourceName": "The Bayside Inn"
  },
  {
    "id": "bayview-inn-node-1585082899",
    "name": "Bayview Inn",
    "lat": 53.9610442,
    "lon": -6.3673053
  },
  {
    "id": "beacon-node-9991461946",
    "name": "Beacon",
    "lat": 53.260483,
    "lon": -9.0752298
  },
  {
    "id": "bealin-s-node-6307110496",
    "name": "Bealin’s",
    "lat": 53.1712894,
    "lon": -6.5315881
  },
  {
    "id": "beaumont-house-chijotvcxdaoz0gr-nvpuaui",
    "name": "Beaumont House",
    "lat": 53.385605,
    "lon": -6.2330372999999994,
    "addressText": "1 Shantalla Rd, Beaumont, Dublin, D09 F6N1",
    "googleFormattedAddress": "1 Shantalla Rd, Beaumont, Dublin, D09 F6N1",
    "sourceName": "Beaumont House"
  },
  {
    "id": "beaumont-s-node-9544602176",
    "name": "Beaumont’s",
    "lat": 53.4218231,
    "lon": -7.9468129
  },
  {
    "id": "bee-hive-node-701880389",
    "name": "Bee Hive",
    "lat": 53.1961785,
    "lon": -7.6283233
  },
  {
    "id": "beehive-bar-node-9418175282",
    "name": "Beehive Bar",
    "lat": 54.4643392,
    "lon": -6.3352763
  },
  {
    "id": "begley-s-node-868398462",
    "name": "Begley's",
    "lat": 52.1902921,
    "lon": -10.374737
  },
  {
    "id": "behan-s-node-360049623",
    "name": "Behan’s",
    "lat": 52.856891,
    "lon": -7.0706315
  },
  {
    "id": "belfast-empire-music-hall-chijuygihpaiyugrwov-vfb6",
    "name": "Belfast Empire Music Hall",
    "lat": 54.588175199999995,
    "lon": -5.932701499999999,
    "town": "BT7 1JQ",
    "county": "Antrim",
    "addressText": "42 Botanic Avenue, Belfast, Co. Antrim, BT7 1JQ",
    "googleFormattedAddress": "42 Botanic Ave, Belfast BT7 1JQ, UK",
    "sourceName": "The Belfast Empire Music Hall"
  },
  {
    "id": "bell-s-bar-node-5590330590",
    "name": "Bell’s Bar",
    "lat": 51.9027581,
    "lon": -8.4748119
  },
  {
    "id": "belle-vue-bar-node-7216956168",
    "name": "Belle Vue Bar",
    "lat": 51.9069495,
    "lon": -8.4611005
  },
  {
    "id": "bellini-s-node-960932609",
    "name": "Bellini’s",
    "lat": 54.1768224,
    "lon": -6.3397187
  },
  {
    "id": "bellview-inn-node-11492954593",
    "name": "Bellview Inn",
    "lat": 53.9763099,
    "lon": -6.7188815
  },
  {
    "id": "belvedere-bar-node-5590669322",
    "name": "Belvedere Bar",
    "lat": 53.3550126,
    "lon": -6.262401
  },
  {
    "id": "bennett-s-bar-node-4656374053",
    "name": "Bennett's Bar",
    "lat": 54.4219895,
    "lon": -6.4470701
  },
  {
    "id": "bennigan-s-node-7785623460",
    "name": "Bennigan’s",
    "lat": 52.3533157,
    "lon": -7.7003837
  },
  {
    "id": "benny-s-pub-node-11506995136",
    "name": "Benny's Pub",
    "lat": 53.922093,
    "lon": -7.5812582
  },
  {
    "id": "bergin-s-node-10617894793",
    "name": "Bergin’s",
    "lat": 53.0340814,
    "lon": -7.2981666
  },
  {
    "id": "bernard-harrington-s-node-1591395801",
    "name": "Bernard Harrington’s",
    "lat": 51.7501594,
    "lon": -9.551913
  },
  {
    "id": "bernie-s-bar-node-10785388179",
    "name": "Bernie's Bar",
    "lat": 52.5145035,
    "lon": -9.6735101
  },
  {
    "id": "bertha-s-bar-node-11092333707",
    "name": "Bertha's Bar",
    "lat": 55.1659373,
    "lon": -6.7861598
  },
  {
    "id": "berties-node-4433209525",
    "name": "Berties",
    "lat": 52.5601735,
    "lon": -8.0443782
  },
  {
    "id": "bessies-bar-node-12085215110",
    "name": "Bessies bar",
    "lat": 54.2734996,
    "lon": -9.2101676
  },
  {
    "id": "biddy-early-s-chijbdps2z8wxugrxucgcazh",
    "name": "Biddy Early's",
    "lat": 52.6525612,
    "lon": -7.249519299999999,
    "town": "Kilkenny",
    "county": "Kilkenny",
    "addressText": "6 John Street Lower, Kilkenny, Co. Kilkenny, R95 Y728",
    "googleFormattedAddress": "6 John Street Lower, Gardens, Kilkenny, R95 Y728",
    "sourceName": "Biddy Early's"
  },
  {
    "id": "biddy-o-dowds-node-10312691645",
    "name": "Biddy O'Dowds",
    "lat": 53.4231166,
    "lon": -7.93704
  },
  {
    "id": "biddy-s-crossroads-bar-tigh-bhiddy-node-778550262",
    "name": "Biddy's Crossroads Bar - Tigh Bhiddy",
    "lat": 54.7061899,
    "lon": -8.7248822
  },
  {
    "id": "biddy-s-o-barnes-node-5718402235",
    "name": "Biddy's o'Barnes",
    "lat": 54.7096214,
    "lon": -7.9709894
  },
  {
    "id": "biddys-bar-bistro-node-2686062427",
    "name": "Biddys Bar & Bistro",
    "lat": 54.5738609,
    "lon": -5.9877649
  },
  {
    "id": "bierhaus-node-793294614",
    "name": "Bierhaus",
    "lat": 51.9015521,
    "lon": -8.4766192
  },
  {
    "id": "bierhaus-node-9925226612",
    "name": "Bierhaus",
    "lat": 53.2703039,
    "lon": -9.0589204
  },
  {
    "id": "bill-chawke-node-8358689367",
    "name": "Bill Chawke",
    "lat": 52.5632898,
    "lon": -8.7925603
  },
  {
    "id": "bill-whelan-s-node-11813276393",
    "name": "Bill Whelan's",
    "lat": 52.3984245,
    "lon": -6.937276
  },
  {
    "id": "billy-kelly-s-chijtx5fkmkbaegrozy04ilp",
    "name": "Billy Kelly's",
    "lat": 52.3327957,
    "lon": -6.4571042,
    "town": "Wexford",
    "county": "Wexford",
    "addressText": "The Faythe, Wexford, Co. Wexford",
    "googleFormattedAddress": "The Faythe, Townparks, Wexford",
    "sourceName": "Billy Kelly's"
  },
  {
    "id": "birchall-s-node-565770327",
    "name": "Birchall’s",
    "lat": 53.3233904,
    "lon": -6.2503391
  },
  {
    "id": "birchall-s-node-612623532",
    "name": "Birchall’s",
    "lat": 53.328038,
    "lon": -6.304945
  },
  {
    "id": "bison-bar-node-2175861132",
    "name": "Bison Bar",
    "lat": 53.3454018,
    "lon": -6.2663687
  },
  {
    "id": "bittles-bar-chijd32ir1uiyugrhulu-nln",
    "name": "Bittles Bar",
    "lat": 54.5986482,
    "lon": -5.9242789,
    "town": "BT1 4LG",
    "county": "Antrim",
    "addressText": "70 Upper Church Lane, Belfast, Co. Antrim, BT1 4LG",
    "googleFormattedAddress": "70 Upper Church Ln, Belfast BT1 4QL, UK",
    "sourceName": "Bittle's"
  },
  {
    "id": "black-cat-cove-node-2334922575",
    "name": "Black Cat Cove",
    "lat": 54.4802136,
    "lon": -8.0918806
  },
  {
    "id": "black-dog-saloon-mezcalaria-node-6200436470",
    "name": "Black Dog Saloon & Mezcalaria",
    "lat": 51.8987566,
    "lon": -8.4774191
  },
  {
    "id": "black-oak-inn-node-4371139295",
    "name": "Black Oak Inn",
    "lat": 53.8831415,
    "lon": -9.5463537
  },
  {
    "id": "black-rabbit-node-1440547427",
    "name": "Black Rabbit",
    "lat": 52.663787,
    "lon": -8.6225788
  },
  {
    "id": "black-sheep-node-1387564887",
    "name": "Black Sheep",
    "lat": 51.5269331,
    "lon": -9.5455933
  },
  {
    "id": "black-tom-s-tavern-node-5669692187",
    "name": "Black Tom's Tavern",
    "lat": 52.7996495,
    "lon": -6.4632171
  },
  {
    "id": "blackbanks-bar-grill-node-2080832424",
    "name": "Blackbanks Bar & Grill",
    "lat": 53.3859746,
    "lon": -6.1555082
  },
  {
    "id": "blackbird-node-9759283604",
    "name": "Blackbird",
    "lat": 51.8305778,
    "lon": -8.0136855
  },
  {
    "id": "blackbird-node-5284190122",
    "name": "Blackbird",
    "lat": 54.9965253,
    "lon": -7.3182119
  },
  {
    "id": "blackbird-curated",
    "name": "Blackbird",
    "lat": 53.3268571,
    "lon": -6.264612,
    "outdoorArea": {
      "type": "outdoor-seating",
      "confidence": "confirmed",
      "source": "https://www.blackbirdrathmines.com/"
    },
    "foodOffer": {
      "category": "burger-pizza-sandwich",
      "confidence": "confirmed",
      "source": "https://www.blackbirdrathmines.com/home"
    },
    "foodTags": {
      "tags": [
        "pizza",
        "burger"
      ],
      "confidence": "confirmed",
      "source": "https://www.blackbirdrathmines.com/"
    },
    "websiteUrl": "https://www.blackbirdrathmines.com",
    "websiteSource": "https://www.blackbirdrathmines.com/"
  },
  {
    "id": "blacks-bark-node-13293522271",
    "name": "blacks Bark",
    "lat": 54.607902,
    "lon": -5.9368834
  },
  {
    "id": "blackwater-bar-and-restaurant-node-5239425590",
    "name": "Blackwater Bar and Restaurant",
    "lat": 55.1245109,
    "lon": -6.4692725
  },
  {
    "id": "blackwater-inn-node-9074410771",
    "name": "Blackwater Inn",
    "lat": 53.7260977,
    "lon": -6.8781215
  },
  {
    "id": "blackwater-tavern-node-13264142121",
    "name": "Blackwater Tavern",
    "lat": 51.8877598,
    "lon": -9.7467208
  },
  {
    "id": "blake-s-bar-node-1871027851",
    "name": "Blake’s Bar",
    "lat": 53.2747091,
    "lon": -9.0529395
  },
  {
    "id": "blakes-bar-node-3456183099",
    "name": "Blakes Bar",
    "lat": 54.1927499,
    "lon": -7.566865
  },
  {
    "id": "blanchfield-s-pub-node-1494644765",
    "name": "Blanchfield's Pub",
    "lat": 52.4906437,
    "lon": -6.9304473
  },
  {
    "id": "blessing-s-node-9505427064",
    "name": "Blessing’s",
    "lat": 53.991641,
    "lon": -7.3601246
  },
  {
    "id": "blind-piper-chijm-cu3rkrugrsdclm2hah",
    "name": "Blind Piper",
    "lat": 51.769534799999995,
    "lon": -10.10076,
    "town": "Caherdaniel",
    "county": "Kerry",
    "addressText": "Caherdaniel, Co. Kerry, V93 DD83",
    "googleFormattedAddress": "Caherdaniel, Co. Kerry, V93 DD83",
    "sourceName": "The Blind Piper"
  },
  {
    "id": "blouser-s-pub-chijw6naa6rkwugrhlwasju-",
    "name": "Blouser's Pub",
    "lat": 53.79948890000001,
    "lon": -9.524127199999999,
    "town": "Westport",
    "county": "Mayo",
    "addressText": "James Street, Westport, Co. Mayo, F28 R278",
    "googleFormattedAddress": "Cahernamart, Westport, Co. Mayo",
    "sourceName": "Blouser’s"
  },
  {
    "id": "blue-anchor-node-11289412532",
    "name": "Blue Anchor",
    "lat": 54.0117084,
    "lon": -6.3462859
  },
  {
    "id": "blue-bar-chiju5rw7j4wxugr3pc-3uga",
    "name": "Blue Bar",
    "lat": 52.6487815,
    "lon": -7.2513281,
    "town": "Kilkenny",
    "county": "Kilkenny",
    "addressText": "19 Patrick Street, Kilkenny, Co. Kilkenny, R95 T326",
    "googleFormattedAddress": "108 Upper Patrick St, Gardens, Kilkenny, R95 P9WP",
    "sourceName": "The Blue Bar"
  },
  {
    "id": "blue-stack-bar-node-9655817224",
    "name": "Blue Stack Bar",
    "lat": 54.6544412,
    "lon": -8.1109787
  },
  {
    "id": "board-node-943350476",
    "name": "Board",
    "lat": 53.3304221,
    "lon": -6.275613,
    "petFriendly": {
      "status": "pet-friendly",
      "confidence": "confirmed",
      "source": "https://boarddublin.com/faq/"
    },
    "foodOffer": {
      "category": "full-menu",
      "confidence": "confirmed",
      "source": "https://boarddublin.com/info/"
    },
    "foodTags": {
      "tags": [
        "pizza"
      ],
      "confidence": "confirmed",
      "source": "https://boarddublin.com/info/"
    },
    "liveMusic": {
      "status": "yes",
      "confidence": "confirmed",
      "source": "https://boarddublin.com/whats-on/"
    },
    "dj": {
      "status": "yes",
      "confidence": "confirmed",
      "source": "https://boarddublin.com/discoboard/"
    },
    "websiteUrl": "https://boarddublin.com",
    "websiteSource": "https://boarddublin.com/"
  },
  {
    "id": "boat-house-node-12269754404",
    "name": "Boat House",
    "lat": 55.2183408,
    "lon": -6.544843
  },
  {
    "id": "boatman-s-inn-node-1338601720",
    "name": "Boatman's Inn",
    "lat": 51.5581198,
    "lon": -9.1410239
  },
  {
    "id": "bob-griffin-s-node-7058410017",
    "name": "Bob Griffin’s",
    "lat": 52.1395731,
    "lon": -10.272622
  },
  {
    "id": "bob-s-node-5673840263",
    "name": "Bob’s",
    "lat": 53.3563012,
    "lon": -6.4500685
  },
  {
    "id": "bob-s-bar-node-5566859021",
    "name": "Bob's Bar",
    "lat": 52.480254,
    "lon": -6.4232789
  },
  {
    "id": "bob-s-bar-node-11090208938",
    "name": "Bob's Bar",
    "lat": 52.5988535,
    "lon": -6.9216124
  },
  {
    "id": "bob-s-bar-bistro-node-2394406317",
    "name": "Bob's Bar & Bistro",
    "lat": 55.1479002,
    "lon": -6.929853
  },
  {
    "id": "bobby-byrne-s-node-264585834",
    "name": "Bobby Byrne’s",
    "lat": 52.65669,
    "lon": -8.6333877
  },
  {
    "id": "bogan-s-bar-node-10138498186",
    "name": "Bogan's Bar",
    "lat": 54.6003126,
    "lon": -7.2998605
  },
  {
    "id": "bohan-s-bar-node-285977642",
    "name": "Bohan's Bar",
    "lat": 52.9264477,
    "lon": -8.6476649
  },
  {
    "id": "boland-s-node-4302212010",
    "name": "Boland’s",
    "lat": 52.2548616,
    "lon": -10.0224591
  },
  {
    "id": "bolands-node-11975728522",
    "name": "Bolands",
    "lat": 53.2887722,
    "lon": -6.198286
  },
  {
    "id": "bolands-of-ballyhane-node-321897441",
    "name": "Bolands of Ballyhane",
    "lat": 52.7492048,
    "lon": -8.4527373
  },
  {
    "id": "bollard-s-node-11063904287",
    "name": "Bollard’s",
    "lat": 52.805023,
    "lon": -7.2119193
  },
  {
    "id": "bonner-s-node-4483872860",
    "name": "Bonner's",
    "lat": 52.7527069,
    "lon": -8.5001865
  },
  {
    "id": "bonner-s-bar-node-1760743035",
    "name": "Bonner's Bar",
    "lat": 55.0277338,
    "lon": -8.3458838
  },
  {
    "id": "bonobo-node-768520263",
    "name": "Bonobo",
    "lat": 53.3503544,
    "lon": -6.2746953,
    "outdoorArea": {
      "type": "beer-garden",
      "confidence": "likely",
      "source": "https://www.canbe.ie/blog.html/the-best-beergardens-in-dublin?lang=fr"
    },
    "petFriendly": {
      "status": "pet-friendly",
      "confidence": "likely",
      "source": "https://kimtastestheworld.com/dog-friendly-dublin-ultimate-guide/"
    }
  },
  {
    "id": "boom-boom-rooms-node-790513540",
    "name": "Boom Boom Rooms",
    "lat": 54.6636877,
    "lon": -5.6664243
  },
  {
    "id": "boomerang-node-13568364837",
    "name": "Boomerang",
    "lat": 53.2044654,
    "lon": -6.1080912
  },
  {
    "id": "boomers-node-1320207694",
    "name": "Boomers",
    "lat": 53.3235135,
    "lon": -6.3792415
  },
  {
    "id": "boot-inn-node-122079566",
    "name": "Boot Inn",
    "lat": 53.4318903,
    "lon": -6.2642817
  },
  {
    "id": "bootleggers-node-2624734781",
    "name": "Bootleggers",
    "lat": 54.5994486,
    "lon": -5.9249068
  },
  {
    "id": "boru-s-bar-node-12009243399",
    "name": "Boru's Bar",
    "lat": 52.831202,
    "lon": -8.9803666
  },
  {
    "id": "bo-ruma-node-277655018",
    "name": "Bóruma",
    "lat": 52.8088368,
    "lon": -8.4381265
  },
  {
    "id": "boss-murphy-s-node-283463889",
    "name": "Boss Murphy's",
    "lat": 52.2714767,
    "lon": -8.7314785
  },
  {
    "id": "boston-bar-node-1808564315",
    "name": "Boston Bar",
    "lat": 51.6787557,
    "lon": -9.4513642
  },
  {
    "id": "boston-s-node-677839817",
    "name": "Boston’s",
    "lat": 51.9255647,
    "lon": -10.2916886
  },
  {
    "id": "bottler-s-bank-chijt6qb-fclz0graphmlelh",
    "name": "Bottler's Bank",
    "lat": 53.3119758,
    "lon": -6.2749318,
    "town": "Dublin",
    "county": "Dublin",
    "addressText": "Bank House, 6 Terenure Road East, Dublin, Co. Dublin, D06 W3K0",
    "googleFormattedAddress": "6 Terenure Rd E, Terenure, Dublin 6, D06 W3K0",
    "sourceName": "The Bottler’s Bank"
  },
  {
    "id": "bowe-s-lounge-bar-chijn6ck1yqoz0grgekt63ni",
    "name": "Bowe's Lounge Bar",
    "lat": 53.3458614,
    "lon": -6.2578933,
    "town": "Dublin",
    "county": "Dublin",
    "addressText": "31 Fleet Street, Dublin, Co. Dublin, D02 DF77",
    "googleFormattedAddress": "31 Fleet St, Dublin 2, D02 DF77",
    "sourceName": "Bowe’s"
  },
  {
    "id": "bowler-s-node-4378143872",
    "name": "Bowler’s",
    "lat": 51.9477697,
    "lon": -10.2218221
  },
  {
    "id": "bowling-bar-node-11435282927",
    "name": "Bowling Bar",
    "lat": 54.9571972,
    "lon": -7.705802
  },
  {
    "id": "boylan-s-node-11493016167",
    "name": "Boylan’s",
    "lat": 53.9755484,
    "lon": -6.7185903
  },
  {
    "id": "boylans-bar-lounge-market-street-bistro-node-5058950738",
    "name": "Boylans Bar, Lounge & Market Street Bistro",
    "lat": 53.8572821,
    "lon": -6.5401617
  },
  {
    "id": "boyle-s-node-9466608236",
    "name": "Boyle’s",
    "lat": 53.1567154,
    "lon": -6.9107223
  },
  {
    "id": "boyle-s-bar-node-1961887049",
    "name": "Boyle's Bar",
    "lat": 54.4134991,
    "lon": -6.1505293
  },
  {
    "id": "boyles-node-7893039473",
    "name": "Boyles",
    "lat": 54.8378116,
    "lon": -6.5933783
  },
  {
    "id": "bracken-s-node-2652462186",
    "name": "Bracken’s",
    "lat": 53.454858,
    "lon": -7.1009472
  },
  {
    "id": "bradley-s-corner-node-4237714235",
    "name": "Bradley's Corner",
    "lat": 54.7770025,
    "lon": -6.6805327
  },
  {
    "id": "bradleys-node-1824289180",
    "name": "Bradleys",
    "lat": 53.1405455,
    "lon": -8.8082717
  },
  {
    "id": "bradshaws-node-3935996819",
    "name": "Bradshaws",
    "lat": 52.7134829,
    "lon": -8.501635
  },
  {
    "id": "brady-s-node-299225092",
    "name": "Brady’s",
    "lat": 53.3098046,
    "lon": -6.2841368
  },
  {
    "id": "brady-s-node-1357036510",
    "name": "Brady’s",
    "lat": 53.4190917,
    "lon": -6.4750779
  },
  {
    "id": "brady-s-shankill-chij4zs-bggoz0grypynhr4r",
    "name": "Brady's Shankill",
    "lat": 53.2301216,
    "lon": -6.124504,
    "addressText": "Dublin Road R119, Shankill, Dublin",
    "googleFormattedAddress": "Dublin Road R119, Shankill, Dublin",
    "sourceName": "Brady's Shankill"
  },
  {
    "id": "bradys-node-2098258646",
    "name": "Bradys",
    "lat": 51.7453494,
    "lon": -8.7339071
  },
  {
    "id": "bradys-node-11784670271",
    "name": "Bradys",
    "lat": 53.9321681,
    "lon": -7.4076468
  },
  {
    "id": "brandywell-bar-node-957667258",
    "name": "Brandywell Bar",
    "lat": 54.9907594,
    "lon": -7.332996
  },
  {
    "id": "brannens-node-3015970321",
    "name": "Brannens",
    "lat": 53.8852648,
    "lon": -9.5465823
  },
  {
    "id": "brannigans-chijvq-ajyqoz0gr1bjchczz",
    "name": "Brannigans",
    "lat": 53.3504216,
    "lon": -6.2597691,
    "town": "Dublin",
    "county": "Dublin",
    "addressText": "9 Cathedral Street, Dublin, Co. Dublin, D01 FH29",
    "googleFormattedAddress": "9 Cathedral St, North City, Dublin, D01 FH29",
    "sourceName": "Brannigan’s"
  },
  {
    "id": "brass-node-5171529312",
    "name": "Brass",
    "lat": 53.2952467,
    "lon": -6.2029446
  },
  {
    "id": "bree-s-bar-chijocfk9h-dxkgrdysi09ai",
    "name": "Bree’s bar",
    "lat": 54.2715745,
    "lon": -8.5816629,
    "town": "Strandhill",
    "county": "Sligo",
    "addressText": "The Bridge, Strandhill, Co. Sligo, F91 P650",
    "googleFormattedAddress": "The Bridge, Larass Or Strandhill, Strandhill, Co. Sligo, F91 P650",
    "sourceName": "Bree’s"
  },
  {
    "id": "breen-s-bar-node-3647727072",
    "name": "Breen's Bar",
    "lat": 52.6765608,
    "lon": -6.2934542
  },
  {
    "id": "breeze-bar-and-grill-node-3836189241",
    "name": "Breeze Bar and Grill",
    "lat": 53.2906136,
    "lon": -6.6865857
  },
  {
    "id": "brennan-s-node-11280287068",
    "name": "Brennan's",
    "lat": 52.7026658,
    "lon": -7.1691455
  },
  {
    "id": "brennan-s-node-408475900",
    "name": "Brennan's",
    "lat": 53.1070146,
    "lon": -6.7627068
  },
  {
    "id": "brennan-s-node-469621095",
    "name": "Brennan's",
    "lat": 54.5945076,
    "lon": -5.9341466
  },
  {
    "id": "brennan-s-node-9419435595",
    "name": "Brennan’s",
    "lat": 52.6496061,
    "lon": -7.2560664
  },
  {
    "id": "brennan-s-node-12074970598",
    "name": "Brennan’s",
    "lat": 53.13851,
    "lon": -7.060987
  },
  {
    "id": "brereton-s-node-1191516445",
    "name": "Brereton’s",
    "lat": 52.9928679,
    "lon": -6.9799364
  },
  {
    "id": "brewdog-node-13341175550",
    "name": "BrewDog",
    "lat": 54.5943965,
    "lon": -5.9400319
  },
  {
    "id": "brewdog-outpost-dublin-manual",
    "name": "BrewDog Outpost Dublin",
    "lat": 53.3446057,
    "lon": -6.2308212,
    "town": "Dublin",
    "county": "Dublin",
    "addressText": "Three Locks Square, 4, Grand Canal Dock, Dublin 2, D02 E5R7, Ireland",
    "sourceName": "BrewDog Dublin",
    "petFriendly": {
      "status": "pet-friendly",
      "confidence": "likely",
      "source": "https://www.bringfido.com/restaurant/beer/city/dublin_ie/"
    },
    "foodOffer": {
      "category": "burger-pizza-sandwich",
      "confidence": "confirmed",
      "source": "https://brewdog.com/pages/bars/dublin"
    },
    "foodTags": {
      "tags": [
        "burger",
        "pizza"
      ],
      "confidence": "confirmed",
      "source": "https://brewdog.com/pages/bars/dublin"
    },
    "websiteUrl": "https://brewdog.com/pages/bars/dublin",
    "websiteSource": "https://brewdog.com/pages/bars/dublin",
    "instagramUrl": "https://instagram.com/brewdogdublin",
    "instagramSource": "https://brewdog.com/pages/bars/dublin"
  },
  {
    "id": "brewers-fayre-node-4675564526",
    "name": "Brewers Fayre",
    "lat": 54.9924304,
    "lon": -7.2790446
  },
  {
    "id": "brewery-bar-node-1521409481",
    "name": "Brewery Bar",
    "lat": 53.3404859,
    "lon": -6.2868779
  },
  {
    "id": "brewery-corner-chijzzb7ghy6xugrllebhppd",
    "name": "Brewery Corner",
    "lat": 52.6551088,
    "lon": -7.255180899999999,
    "town": "Kilkenny",
    "county": "Kilkenny",
    "addressText": "29 Parliament Street, Kilkenny, Co. Kilkenny, R95 PV44",
    "googleFormattedAddress": "29 Parliament St, Gardens, Kilkenny, R95 PV44",
    "sourceName": "Brewery Corner"
  },
  {
    "id": "brewery-tavern-node-4888166121",
    "name": "Brewery Tavern",
    "lat": 53.8968296,
    "lon": -6.3891655
  },
  {
    "id": "brian-boru-on-the-hill-node-469153856",
    "name": "Brian Ború On The Hill",
    "lat": 52.8131063,
    "lon": -8.4374049
  },
  {
    "id": "brian-coyne-s-node-6563246547",
    "name": "Brian Coyne’s",
    "lat": 53.45422,
    "lon": -7.099708
  },
  {
    "id": "brian-kelly-node-11891386145",
    "name": "Brian Kelly",
    "lat": 52.8433233,
    "lon": -8.984144
  },
  {
    "id": "brian-smith-node-1191516446",
    "name": "Brian Smith",
    "lat": 52.9928678,
    "lon": -6.9798836
  },
  {
    "id": "briar-rose-node-1119024663",
    "name": "Briar Rose",
    "lat": 51.883475,
    "lon": -8.4469897
  },
  {
    "id": "brick-lane-node-12107217373",
    "name": "Brick Lane",
    "lat": 51.8981036,
    "lon": -8.4771662
  },
  {
    "id": "brickwork-lounge-node-543387013",
    "name": "Brickwork Lounge",
    "lat": 54.9966166,
    "lon": -7.3218845
  },
  {
    "id": "brickyard-node-4266126756",
    "name": "Brickyard",
    "lat": 53.2863405,
    "lon": -6.23705
  },
  {
    "id": "bridge-bar-node-10984568391",
    "name": "Bridge Bar",
    "lat": 51.5506826,
    "lon": -9.2705131
  },
  {
    "id": "bridge-bar-node-2424895968",
    "name": "Bridge Bar",
    "lat": 52.0602663,
    "lon": -9.0637264
  },
  {
    "id": "bridge-bar-node-455615776",
    "name": "Bridge Bar",
    "lat": 52.6761077,
    "lon": -6.2853629
  },
  {
    "id": "bridge-inn-node-9522576313",
    "name": "Bridge Inn",
    "lat": 54.9504229,
    "lon": -8.3609893
  },
  {
    "id": "bridge-st-bar-chij7up3f3vdwugr-x1pbemj",
    "name": "Bridge St Bar",
    "lat": 53.857450899999996,
    "lon": -9.2974588,
    "town": "Castlebar",
    "county": "Mayo",
    "addressText": "Bridge Street, Castlebar, Co. Mayo, F23 PN20",
    "googleFormattedAddress": "Bridge Street, Gporteendrunagh, Castlebar, Co. Mayo",
    "sourceName": "Bridge St"
  },
  {
    "id": "bridgie-terries-node-770637466",
    "name": "Bridgie Terries",
    "lat": 52.1245402,
    "lon": -7.5620256
  },
  {
    "id": "bridgies-bar-chij45dts2qpregrieb-9jxh",
    "name": "Bridgies Bar",
    "lat": 51.8242036,
    "lon": -8.4619518,
    "town": "Ballygarvan",
    "county": "Cork",
    "addressText": "Ballygarvan, Co. Cork",
    "googleFormattedAddress": "Ballyduhig South, Ballygarvan, Co. Cork",
    "sourceName": "Bridgie’s Bar"
  },
  {
    "id": "briodys-chijmuxxtouoz0grobyyhe8j",
    "name": "Briodys",
    "lat": 53.3495998,
    "lon": -6.258064399999999,
    "town": "Dublin",
    "county": "Dublin",
    "addressText": "97 Marlborough Street, Dublin, Co. Dublin, D01 PP92",
    "googleFormattedAddress": "97 Marlborough St, North City, Dublin 1, D01 PP92",
    "sourceName": "Briody’s"
  },
  {
    "id": "brogan-s-bar-hotel-node-3404109996",
    "name": "Brogan’s Bar & Hotel",
    "lat": 53.5575023,
    "lon": -6.789307
  },
  {
    "id": "brogans-chijh9zir50oz0grh7ge580q",
    "name": "Brogans 🇮🇪",
    "lat": 53.344302199999994,
    "lon": -6.266322,
    "town": "Dublin",
    "county": "Dublin",
    "addressText": "75 Dame Street, Dublin, Co. Dublin, D02 DX00",
    "googleFormattedAddress": "75 Dame Street, 75 Dame St, Temple Bar, Dublin 2, D02 DX00",
    "sourceName": "Brogan's"
  },
  {
    "id": "brosnan-s-node-2107149026",
    "name": "Brosnan's",
    "lat": 52.5017617,
    "lon": -9.3707295
  },
  {
    "id": "brosnan-s-bar-node-3897293907",
    "name": "Brosnan’s Bar",
    "lat": 52.5159964,
    "lon": -7.8918518
  },
  {
    "id": "browne-s-node-1664278108",
    "name": "Browne's",
    "lat": 52.675375,
    "lon": -6.2961762
  },
  {
    "id": "browne-s-node-13137978149",
    "name": "Browne’s",
    "lat": 52.2308684,
    "lon": -9.4639516
  },
  {
    "id": "browne-s-bar-node-1424317533",
    "name": "Browne's Bar",
    "lat": 51.9783342,
    "lon": -8.6156763
  },
  {
    "id": "browne-s-bar-node-11564236063",
    "name": "Browne's Bar",
    "lat": 51.9043376,
    "lon": -8.9553232
  },
  {
    "id": "browne-s-bar-node-12178833840",
    "name": "Browne’s Bar",
    "lat": 52.0589343,
    "lon": -9.5035747
  },
  {
    "id": "brownes-bar-lounge-chijzx2ybgebaegrelwjqopt",
    "name": "Brownes Bar & Lounge",
    "lat": 52.32929,
    "lon": -6.4714236,
    "town": "BT1 26HR",
    "county": "Wexford",
    "addressText": "Distillery Road, Wexford, Co. Wexford, BT1 26HR",
    "googleFormattedAddress": "Slipperygreen, Wexford",
    "sourceName": "Browne’s Bar & Lounge"
  },
  {
    "id": "bru-bar-hostel-node-4307051701",
    "name": "Brú Bar & Hostel",
    "lat": 51.9014301,
    "lon": -8.4660339
  },
  {
    "id": "brubakers-node-10696612233",
    "name": "Brubakers",
    "lat": 54.0016087,
    "lon": -6.4048771
  },
  {
    "id": "brunel-s-node-10167533316",
    "name": "Brunel's",
    "lat": 54.2140955,
    "lon": -5.8869883
  },
  {
    "id": "bruxelles-curated",
    "name": "Bruxelles",
    "lat": 53.3413724,
    "lon": -6.2608444
  },
  {
    "id": "bryan-s-node-313995252",
    "name": "Bryan's",
    "lat": 52.6736313,
    "lon": -8.6705711
  },
  {
    "id": "bryson-s-bar-node-2698337813",
    "name": "Bryson's Bar",
    "lat": 54.7574755,
    "lon": -6.6103439
  },
  {
    "id": "bt-possc-node-973045823",
    "name": "BT POSSC",
    "lat": 54.9996795,
    "lon": -7.3237114
  },
  {
    "id": "buckley-s-node-4806692441",
    "name": "Buckley's",
    "lat": 51.9822074,
    "lon": -8.5151498
  },
  {
    "id": "buckley-s-node-1404605740",
    "name": "Buckley’s",
    "lat": 51.8038242,
    "lon": -8.2971162
  },
  {
    "id": "buckley-s-bar-node-4953164349",
    "name": "Buckley’s Bar",
    "lat": 52.0596903,
    "lon": -9.5058547
  },
  {
    "id": "buddha-bar-node-3514768939",
    "name": "Buddha Bar",
    "lat": 53.2744585,
    "lon": -9.0535447
  },
  {
    "id": "buddy-s-bar-node-8690993395",
    "name": "Buddy's Bar",
    "lat": 54.9841701,
    "lon": -6.6869214
  },
  {
    "id": "bugler-doyles-node-5684774784",
    "name": "Bugler Doyles",
    "lat": 52.3359798,
    "lon": -6.4594832
  },
  {
    "id": "bugler-s-pub-node-286817205",
    "name": "Bugler's Pub",
    "lat": 53.2840791,
    "lon": -6.2954161
  },
  {
    "id": "bulben-node-10879449914",
    "name": "Bulben",
    "lat": 54.2817662,
    "lon": -8.460788
  },
  {
    "id": "bulgaden-castle-node-8808073646",
    "name": "Bulgaden Castle",
    "lat": 52.4182173,
    "lon": -8.5332229
  },
  {
    "id": "bull-mccabe-s-node-5140316245",
    "name": "Bull McCabe's",
    "lat": 52.8013011,
    "lon": -6.7391711
  },
  {
    "id": "bullhouse-east-chijsutqfgajyugrfp7u6b-i",
    "name": "Bullhouse East",
    "lat": 54.5977952,
    "lon": -5.889166100000001,
    "town": "BT1 26QA",
    "county": "Antrim",
    "addressText": "442-446 Newtownards Road, Belfast, Co. Antrim, BT1 26QA",
    "googleFormattedAddress": "442-446 Newtownards Rd, Belfast BT4 1HJ, UK",
    "sourceName": "Bullhouse East"
  },
  {
    "id": "bungalow-bar-chijx1ieehvdwugrtdqci6ny",
    "name": "Bungalow Bar",
    "lat": 53.8575575,
    "lon": -9.2976925,
    "town": "Castlebar",
    "county": "Mayo",
    "addressText": "Main Street, Castlebar, Co. Mayo, F23 A248",
    "googleFormattedAddress": "Bridge Street, Knockacroghery, Castlebar, Co. Mayo",
    "sourceName": "Bungalow Bar"
  },
  {
    "id": "bunker-s-bar-restaurant-node-1873450957",
    "name": "Bunker’s Bar & Restaurant",
    "lat": 52.1069021,
    "lon": -9.788013
  },
  {
    "id": "bunny-s-bar-node-1609219914",
    "name": "Bunny's Bar",
    "lat": 53.3431037,
    "lon": -7.6139725
  },
  {
    "id": "burnt-pig-node-11787182659",
    "name": "Burnt Pig",
    "lat": 54.0727707,
    "lon": -7.0832803
  },
  {
    "id": "burren-social-club-node-3903233798",
    "name": "Burren Social Club",
    "lat": 54.1379388,
    "lon": -6.2631123
  },
  {
    "id": "bush-bar-node-11613394339",
    "name": "Bush Bar",
    "lat": 53.9461271,
    "lon": -8.0940576
  },
  {
    "id": "bush-house-node-11362302717",
    "name": "Bush House",
    "lat": 55.2055918,
    "lon": -6.5232735
  },
  {
    "id": "bushe-s-node-854698366",
    "name": "Bushe’s",
    "lat": 51.4832349,
    "lon": -9.372971
  },
  {
    "id": "bushmills-bar-node-2430804898",
    "name": "Bushmills Bar",
    "lat": 54.614828,
    "lon": -5.8703437
  },
  {
    "id": "busker-browne-s-node-9922900957",
    "name": "Busker Browne’s",
    "lat": 53.2716502,
    "lon": -9.054335
  },
  {
    "id": "busker-s-bar-node-2419698552",
    "name": "Busker's Bar",
    "lat": 53.345838,
    "lon": -6.2604831
  },
  {
    "id": "butler-barry-chijhw8ba2ioz0grpw-hfhtc",
    "name": "Butler & Barry",
    "lat": 53.203491,
    "lon": -6.0981765,
    "addressText": "Strand Rd, Bray, Co. Wicklow",
    "googleFormattedAddress": "Strand Rd, Bray, Co. Wicklow",
    "sourceName": "Butler & Barry"
  },
  {
    "id": "butler-arms-node-684291065",
    "name": "Butler Arms",
    "lat": 51.8278783,
    "lon": -10.1721912
  },
  {
    "id": "butler-s-node-10154281502",
    "name": "Butler’s",
    "lat": 52.7954348,
    "lon": -7.8380193
  },
  {
    "id": "butler-s-bar-node-843694394",
    "name": "Butler's Bar",
    "lat": 51.7627804,
    "lon": -8.3737505
  },
  {
    "id": "butler-s-bar-eatery-node-10151927900",
    "name": "Butler’s Bar & Eatery",
    "lat": 52.8647537,
    "lon": -8.1899743
  },
  {
    "id": "butler-s-inn-node-9290659179",
    "name": "Butler’s Inn",
    "lat": 52.7196368,
    "lon": -7.5837796
  },
  {
    "id": "butler-s-sportsbar-node-11491689497",
    "name": "Butler’s Sportsbar",
    "lat": 52.4659409,
    "lon": -7.6959807
  },
  {
    "id": "byrne-woods-node-2032720437",
    "name": "Byrne & Woods",
    "lat": 53.061755,
    "lon": -6.2244203
  },
  {
    "id": "byrne-s-node-2970706638",
    "name": "Byrne's",
    "lat": 52.5030037,
    "lon": -6.9059348
  },
  {
    "id": "byrne-s-node-4986810122",
    "name": "Byrne's",
    "lat": 52.2449387,
    "lon": -6.9682276
  },
  {
    "id": "byrne-s-node-1541610644",
    "name": "Byrne's",
    "lat": 53.1058443,
    "lon": -6.0643075
  },
  {
    "id": "byrne-s-node-11114796166",
    "name": "Byrne's",
    "lat": 53.7600726,
    "lon": -9.1177779
  },
  {
    "id": "byrne-s-node-2075666540",
    "name": "Byrne’s",
    "lat": 53.857342,
    "lon": -9.2975915
  },
  {
    "id": "byrne-s-capitol-bar-node-1809641158",
    "name": "Byrne’s Capitol Bar",
    "lat": 52.5183886,
    "lon": -7.8862582
  },
  {
    "id": "byrne-s-lounge-node-13161684466",
    "name": "Byrne's Lounge",
    "lat": 52.827039,
    "lon": -6.5688856
  },
  {
    "id": "byrne-s-of-no-10-node-2992003657",
    "name": "Byrne's of No. 10",
    "lat": 53.9953397,
    "lon": -6.4062453
  },
  {
    "id": "byrnes-of-galloping-green-chijz-o-tiajz0griyaydwtt",
    "name": "Byrnes of Galloping Green",
    "lat": 53.2803204,
    "lon": -6.1888174,
    "town": "Blackrock",
    "county": "Dublin",
    "addressText": "Philipstown House, Belmont Grove, Blackrock, Co. Dublin, A94 YC85",
    "googleFormattedAddress": "Stillorgan Rd, Stillorgan, Dublin",
    "sourceName": "Byrne's Galloping Green"
  },
  {
    "id": "c-central-node-778690166",
    "name": "C Central",
    "lat": 53.3331138,
    "lon": -6.2647717
  },
  {
    "id": "c-j-finlay-node-12074970595",
    "name": "C. J. Finlay",
    "lat": 53.1381412,
    "lon": -7.0624359
  },
  {
    "id": "c-mac-namee-node-475388654",
    "name": "C. Mac Namee",
    "lat": 53.9714649,
    "lon": -6.487281
  },
  {
    "id": "c-p-farrell-s-node-1185267468",
    "name": "C.P. Farrell's",
    "lat": 52.9068502,
    "lon": -6.9651227
  },
  {
    "id": "cable-o-leary-node-1545064253",
    "name": "Cable O´Leary",
    "lat": 51.8253053,
    "lon": -10.2720947
  },
  {
    "id": "cables-at-hilton-node-1233488362",
    "name": "Cables at Hilton",
    "lat": 54.5967593,
    "lon": -5.9190162
  },
  {
    "id": "cadell-node-9930271227",
    "name": "Cadell",
    "lat": 53.2755446,
    "lon": -9.052439
  },
  {
    "id": "cafe-arnou-node-2402250651",
    "name": "Cafe Arnou",
    "lat": 55.1832276,
    "lon": -7.9690956
  },
  {
    "id": "cafe-bar-h-node-1223267149",
    "name": "Cafe Bar H",
    "lat": 53.3433861,
    "lon": -6.2388784
  },
  {
    "id": "cafe-ceol-node-790512796",
    "name": "Cafe Ceol",
    "lat": 54.6636824,
    "lon": -5.6665206
  },
  {
    "id": "cafe-en-seine-node-10601110758",
    "name": "Café en Seine",
    "lat": 53.3407232,
    "lon": -6.2585998
  },
  {
    "id": "caffrey-s-node-667135412",
    "name": "Caffrey's",
    "lat": 53.4687639,
    "lon": -6.5362401
  },
  {
    "id": "cahalane-s-node-6785677231",
    "name": "Cahalane's",
    "lat": 51.549629,
    "lon": -9.2696767
  },
  {
    "id": "cahill-s-bar-node-2413038506",
    "name": "Cahill's Bar",
    "lat": 52.0840423,
    "lon": -9.2188708
  },
  {
    "id": "caitin-s-pub-node-1730262035",
    "name": "Caitin's Pub",
    "lat": 52.0327893,
    "lon": -10.0775657
  },
  {
    "id": "callan-s-node-11362963779",
    "name": "Callan’s",
    "lat": 53.9727865,
    "lon": -6.7194506
  },
  {
    "id": "callanan-node-468721300",
    "name": "Callanan",
    "lat": 51.8954735,
    "lon": -8.4723182
  },
  {
    "id": "camden-bites-brews-node-2980368136",
    "name": "Camden Bites & Brews",
    "lat": 53.3359048,
    "lon": -6.2650316
  },
  {
    "id": "camden-exchange-node-3567190069",
    "name": "Camden Exchange",
    "lat": 53.3351088,
    "lon": -6.2654328
  },
  {
    "id": "campbell-s-node-722389756",
    "name": "Campbell's",
    "lat": 53.7795574,
    "lon": -9.6390886
  },
  {
    "id": "campbell-s-node-9453330699",
    "name": "Campbell’s",
    "lat": 53.9437489,
    "lon": -8.9500273
  },
  {
    "id": "canal-bar-node-5590681110",
    "name": "Canal Bar",
    "lat": 53.3260674,
    "lon": -8.2190127
  },
  {
    "id": "candlelight-node-13668896713",
    "name": "Candlelight",
    "lat": 53.4520177,
    "lon": -6.1530308
  },
  {
    "id": "candlelight-bar-dundrum-chijp6rizw4jz0grbngq0bko",
    "name": "Candlelight Bar Dundrum",
    "lat": 53.2879485,
    "lon": -6.2435576,
    "addressText": "Unit 28 Dundrum Town Centre Pembroke District, Dundrum, Dublin, Co. Dublin, D16 W0C0",
    "googleFormattedAddress": "Unit 28 Dundrum Town Centre Pembroke District, Dundrum, Dublin, Co. Dublin, D16 W0C0",
    "sourceName": "Candlelight Bar Dundrum"
  },
  {
    "id": "candlelight-bar-rathmines-chijk1weizunz0grhpgwf0si",
    "name": "Candlelight Bar Rathmines",
    "lat": 53.322806199999995,
    "lon": -6.2646999999999995,
    "addressText": "2 Castlewood Ave, Rathmines, Dublin, D06 T9T1",
    "googleFormattedAddress": "2 Castlewood Ave, Rathmines, Dublin, D06 T9T1",
    "sourceName": "Candlelight Bar Rathmines"
  },
  {
    "id": "cannings-pub-node-1611216704",
    "name": "Cannings Pub",
    "lat": 53.0198115,
    "lon": -8.3634328
  },
  {
    "id": "canton-caseys-chij5qfucmjbxugr310erivx",
    "name": "Canton Caseys",
    "lat": 53.525680900000005,
    "lon": -7.3412883,
    "town": "Mullingar",
    "county": "Westmeath",
    "addressText": "41 Pearse Street, Mullingar, Co. Westmeath, N91 W286",
    "googleFormattedAddress": "41 Pearse St, Mullingar, Co. Westmeath, N91 W286",
    "sourceName": "Canton Casey’s"
  },
  {
    "id": "canty-s-bar-node-5204467575",
    "name": "Canty’s Bar",
    "lat": 51.8976506,
    "lon": -8.469931
  },
  {
    "id": "canty-s-bar-node-12900397301",
    "name": "Canty’s Bar",
    "lat": 51.9144146,
    "lon": -8.1721183
  },
  {
    "id": "caoch-o-leary-node-366411571",
    "name": "Caoch O’Leary",
    "lat": 52.882932,
    "lon": -7.4461605
  },
  {
    "id": "captain-s-bar-node-3595388165",
    "name": "Captain's Bar",
    "lat": 55.1318519,
    "lon": -6.6776669
  },
  {
    "id": "caravansary-node-292265329",
    "name": "Caravansary",
    "lat": 52.4118261,
    "lon": -8.1500313
  },
  {
    "id": "carberry-s-pub-chijhr6joh9pz0grba0y-ltm",
    "name": "Carberry's Pub",
    "lat": 53.513608,
    "lon": -6.5402257,
    "town": "Dunshaughlin",
    "county": "Meath",
    "addressText": "Main Street, Dunshaughlin, Co. Meath",
    "googleFormattedAddress": "Main St, Dunshaughlin, Co. Meath",
    "sourceName": "Carberry’s"
  },
  {
    "id": "carey-s-bar-node-7821185221",
    "name": "Carey's Bar",
    "lat": 52.3517594,
    "lon": -7.7112658
  },
  {
    "id": "caribou-node-768231205",
    "name": "Caribou",
    "lat": 53.3412009,
    "lon": -6.2642908
  },
  {
    "id": "carlingford-arms-node-10739895063",
    "name": "Carlingford Arms",
    "lat": 54.0404246,
    "lon": -6.1867116
  },
  {
    "id": "carnaross-inn-node-12816987097",
    "name": "Carnaross Inn",
    "lat": 53.7509286,
    "lon": -6.9562613
  },
  {
    "id": "carpe-diem-node-9167490801",
    "name": "Carpe Diem",
    "lat": 52.8386692,
    "lon": -6.9302002
  },
  {
    "id": "carroll-s-node-8636701905",
    "name": "Carroll’s",
    "lat": 52.5261248,
    "lon": -7.1379174
  },
  {
    "id": "carroll-s-bar-node-9953671983",
    "name": "Carroll’s Bar",
    "lat": 53.2706712,
    "lon": -9.0573552
  },
  {
    "id": "carrolls-node-7112052479",
    "name": "Carrolls",
    "lat": 52.6812256,
    "lon": -7.0290244
  },
  {
    "id": "carrolls-gastro-pub-chijewb2d1pyz0gr58sojqt5",
    "name": "Carrolls Gastro Pub",
    "lat": 53.3572208,
    "lon": -6.4495555,
    "addressText": "1 Lower Main St, Lucan And Pettycanon, Lucan, Co. Dublin, K78 K0H6",
    "googleFormattedAddress": "1 Lower Main St, Lucan And Pettycanon, Lucan, Co. Dublin, K78 K0H6",
    "sourceName": "Carrolls Gastro Pub"
  },
  {
    "id": "carrs-of-the-diamond-node-4264471112",
    "name": "Carrs Of The Diamond",
    "lat": 55.0216762,
    "lon": -7.7109712
  },
  {
    "id": "cartoon-inn-node-4929081565",
    "name": "Cartoon Inn",
    "lat": 52.9309314,
    "lon": -6.2316701
  },
  {
    "id": "casey-s-node-1338584934",
    "name": "Casey's",
    "lat": 51.5580414,
    "lon": -9.1416925
  },
  {
    "id": "casey-s-bar-node-1282011765",
    "name": "Casey's Bar",
    "lat": 51.5642994,
    "lon": -9.1151093
  },
  {
    "id": "casey-s-bar-restaurant-node-6501146285",
    "name": "Casey’s Bar & Restaurant",
    "lat": 51.5553498,
    "lon": -9.142307
  },
  {
    "id": "casey-s-bar-restaurant-node-8044167096",
    "name": "Casey’s Bar & Restaurant",
    "lat": 53.9323231,
    "lon": -7.4080386
  },
  {
    "id": "casey-s-bar-and-restaurant-node-7873828362",
    "name": "Casey’s Bar and Restaurant",
    "lat": 51.6232997,
    "lon": -8.890655
  },
  {
    "id": "caseys-node-5601312035",
    "name": "Caseys",
    "lat": 52.3401544,
    "lon": -6.4710322
  },
  {
    "id": "caseys-bar-bistro-node-678543780",
    "name": "Caseys Bar & Bistro",
    "lat": 53.0113992,
    "lon": -6.3253538
  },
  {
    "id": "cassells-node-1669501029",
    "name": "Cassells",
    "lat": 53.4915712,
    "lon": -7.6609589
  },
  {
    "id": "cassidy-s-node-7702319856",
    "name": "Cassidy's",
    "lat": 53.8207666,
    "lon": -7.7684276
  },
  {
    "id": "cassidys-curated",
    "name": "Cassidy's",
    "lat": 53.35222,
    "lon": -6.26085
  },
  {
    "id": "cassidy-s-pub-and-restaurant-node-1372724604",
    "name": "Cassidy’s Pub and Restaurant",
    "lat": 53.0353762,
    "lon": -9.0763922
  },
  {
    "id": "castle-bar-node-938555922",
    "name": "Castle Bar",
    "lat": 54.0058331,
    "lon": -6.3964784
  },
  {
    "id": "castle-inn-bar-node-5486876921",
    "name": "Castle Inn Bar",
    "lat": 52.1687521,
    "lon": -9.7012347
  },
  {
    "id": "castle-tavern-node-821881844",
    "name": "Castle Tavern",
    "lat": 51.9284628,
    "lon": -8.3894726
  },
  {
    "id": "cat-and-cage-chijp0yii28oz0gr1sx1zymk",
    "name": "Cat and Cage",
    "lat": 53.3711919,
    "lon": -6.2532521,
    "town": "Dublin",
    "county": "Dublin",
    "addressText": "74 Drumcondra Road Upper, Dublin, Co. Dublin, D09 X620",
    "googleFormattedAddress": "74 Drumcondra Rd Upper, Drumcondra, Dublin, D09 X620",
    "sourceName": "The Cat and Cage",
    "petFriendly": {
      "status": "pet-friendly",
      "confidence": "likely",
      "source": "https://www.visitdublin.com/guides/dog-friendly-restaurants-dublin"
    },
    "foodOffer": {
      "category": "full-menu",
      "confidence": "confirmed",
      "source": "https://catandcage.ie/food-and-drink/food-menus/dinner-2/"
    },
    "liveMusic": {
      "status": "yes",
      "confidence": "confirmed",
      "source": "https://catandcage.ie/whats-on/"
    },
    "websiteUrl": "https://catandcage.ie",
    "websiteSource": "https://catandcage.ie/",
    "instagramUrl": "https://instagram.com/thecatandcage",
    "instagramSource": "https://catandcage.ie/"
  },
  {
    "id": "cat-s-craddle-node-507023909",
    "name": "Cat's Craddle",
    "lat": 52.6088471,
    "lon": -8.5585121
  },
  {
    "id": "caulfield-s-node-7658863171",
    "name": "Caulfield's",
    "lat": 52.2594222,
    "lon": -7.1206883
  },
  {
    "id": "caulfields-bar-node-3141641701",
    "name": "Caulfields Bar",
    "lat": 54.5943724,
    "lon": -5.9883833
  },
  {
    "id": "causkeys-node-566633327",
    "name": "Causkeys",
    "lat": 51.6941356,
    "lon": -9.9580172
  },
  {
    "id": "celbridge-gaa-clubhouse-bar-node-1260556889",
    "name": "Celbridge GAA Clubhouse Bar",
    "lat": 53.3316434,
    "lon": -6.5288757
  },
  {
    "id": "cellar-bar-node-2127757454",
    "name": "Cellar Bar",
    "lat": 53.3387556,
    "lon": -6.2526088
  },
  {
    "id": "celtic-bar-node-967163101",
    "name": "Celtic Bar",
    "lat": 54.9943092,
    "lon": -7.3320316
  },
  {
    "id": "celtic-whiskey-bar-node-10001422062",
    "name": "Celtic Whiskey Bar",
    "lat": 52.0588559,
    "lon": -9.5112289
  },
  {
    "id": "central-node-1616831288",
    "name": "Central",
    "lat": 55.0806877,
    "lon": -6.0635507
  },
  {
    "id": "central-bar-node-11493016197",
    "name": "Central Bar",
    "lat": 53.9758962,
    "lon": -6.7187552
  },
  {
    "id": "central-start-node-9531021621",
    "name": "Central Start",
    "lat": 51.9540512,
    "lon": -7.8482008
  },
  {
    "id": "centurion-bar-node-10792357138",
    "name": "Centurion Bar",
    "lat": 53.3274636,
    "lon": -6.2296624
  },
  {
    "id": "chamfers-restaurant-node-2472892794",
    "name": "Chamfers Restaurant",
    "lat": 52.2702695,
    "lon": -9.6973332
  },
  {
    "id": "chaplin-s-node-2098970543",
    "name": "Chaplin's",
    "lat": 51.7491145,
    "lon": -8.7399926
  },
  {
    "id": "charlemont-bar-bistro-node-4357798892",
    "name": "Charlemont Bar & Bistro",
    "lat": 53.3309476,
    "lon": -6.259287
  },
  {
    "id": "charlesland-golf-club-search-greystones",
    "name": "Charlesland Golf Club",
    "lat": 53.1307318,
    "lon": -6.0560632,
    "town": "Greystones",
    "county": "Wicklow",
    "addressText": "Ballynerrin, Greystones, Co. Wicklow",
    "googleFormattedAddress": "Ballynerrin, Greystones, Co. Wicklow",
    "sourceName": "Charlesland Golf Club"
  },
  {
    "id": "charlie-chaplin-s-node-4020703925",
    "name": "Charlie Chaplin’s",
    "lat": 52.6632618,
    "lon": -8.6244746
  },
  {
    "id": "charlie-macs-node-6018159585",
    "name": "Charlie Macs",
    "lat": 52.1378876,
    "lon": -8.2763906
  },
  {
    "id": "charlie-madden-node-7045973154",
    "name": "Charlie Madden",
    "lat": 51.6439734,
    "lon": -8.765776
  },
  {
    "id": "charlie-malone-s-node-4028743521",
    "name": "Charlie Malone's",
    "lat": 52.6563161,
    "lon": -8.632097
  },
  {
    "id": "charlie-ryan-s-node-943042895",
    "name": "Charlie Ryan’s",
    "lat": 53.1805448,
    "lon": -6.7980159
  },
  {
    "id": "charlie-st-george-node-5039867626",
    "name": "Charlie St George",
    "lat": 52.6593884,
    "lon": -8.6254377
  },
  {
    "id": "charlie-s-bar-node-1257321578",
    "name": "Charlie’s Bar",
    "lat": 53.1986636,
    "lon": -8.567886
  },
  {
    "id": "charlie-s-bar-node-2122498091",
    "name": "Charlie’s Bar",
    "lat": 53.629257,
    "lon": -8.191784
  },
  {
    "id": "charlies-node-3342940161",
    "name": "Charlies",
    "lat": 51.8970363,
    "lon": -8.4666913
  },
  {
    "id": "charlotte-quay-node-4452570750",
    "name": "Charlotte Quay",
    "lat": 53.3428817,
    "lon": -6.2369889,
    "town": "Dublin",
    "county": "Dublin",
    "addressText": "Charlotte Quay Dock, Millennium Tower, Ground Floor, Ringsend Rd, Dublin 4, D04 H9F8, Ireland",
    "sourceName": "Bereen Brothers / OpenStreetMap",
    "outdoorArea": {
      "type": "terrace",
      "confidence": "confirmed",
      "source": "https://bereenbrothers.com/charlotte-quay"
    },
    "petFriendly": {
      "status": "pet-friendly",
      "confidence": "likely",
      "source": "https://www.visitdublin.com/charlotte-quay-restaurant"
    },
    "foodOffer": {
      "category": "restaurant-grade",
      "confidence": "confirmed",
      "source": "https://bereenbrothers.com/charlotte-quay"
    },
    "foodTags": {
      "tags": [
        "burger",
        "sandwich"
      ],
      "confidence": "confirmed",
      "source": "https://bereenbrothers.com/media/pages/charlotte-quay/e4d0abf403-1774360017/cq-lunch-march-2026.docx.pdf"
    },
    "websiteUrl": "https://bereenbrothers.com/charlotte-quay",
    "websiteSource": "https://bereenbrothers.com/charlotte-quay",
    "instagramUrl": "https://instagram.com/charlottequay",
    "instagramSource": "https://bereenbrothers.com/charlotte-quay"
  },
  {
    "id": "charter-bar-node-10621505038",
    "name": "Charter Bar",
    "lat": 53.0349331,
    "lon": -7.3030101
  },
  {
    "id": "chaser-s-node-4030315260",
    "name": "Chaser's",
    "lat": 53.1850816,
    "lon": -6.6286703
  },
  {
    "id": "chasers-node-8521097200",
    "name": "Chasers",
    "lat": 53.3424752,
    "lon": -6.3535971
  },
  {
    "id": "chasers-bar-bistro-node-5843672191",
    "name": "Chasers Bar & Bistro",
    "lat": 52.4489112,
    "lon": -9.0512002
  },
  {
    "id": "cheers-node-12745770704",
    "name": "Cheers",
    "lat": 53.863822,
    "lon": -7.2061167
  },
  {
    "id": "cheevers-bar-node-4018622241",
    "name": "Cheevers Bar",
    "lat": 53.2302183,
    "lon": -8.7345444
  },
  {
    "id": "cheevers-bar-node-1735659201",
    "name": "Cheevers Bar",
    "lat": 53.4877227,
    "lon": -8.5670095
  },
  {
    "id": "chelsea-drugstore-node-2997549697",
    "name": "Chelsea Drugstore",
    "lat": 53.3422541,
    "lon": -6.2644346
  },
  {
    "id": "chelsea-wine-bar-node-1615888475",
    "name": "Chelsea Wine Bar",
    "lat": 54.575739,
    "lon": -5.9547213
  },
  {
    "id": "cherry-tree-pub-and-restaurant-node-4913827407",
    "name": "Cherry Tree Pub and Restaurant",
    "lat": 53.3164631,
    "lon": -6.3327284
  },
  {
    "id": "chestnut-bar-node-1377714643",
    "name": "Chestnut Bar",
    "lat": 54.3775494,
    "lon": -7.3173884
  },
  {
    "id": "chestnut-tree-node-1496545717",
    "name": "Chestnut Tree",
    "lat": 53.6811837,
    "lon": -7.8793349
  },
  {
    "id": "chrissies-s-node-7857605610",
    "name": "Chrissies’s",
    "lat": 52.354899,
    "lon": -7.7082233
  },
  {
    "id": "christy-cowen-node-1609219915",
    "name": "Christy Cowen",
    "lat": 53.3421866,
    "lon": -7.6126255
  },
  {
    "id": "christy-maher-node-1251966478",
    "name": "Christy Maher",
    "lat": 52.9550038,
    "lon": -7.7973291
  },
  {
    "id": "christy-s-node-1393699167",
    "name": "Christy’s",
    "lat": 52.798168,
    "lon": -6.1531807
  },
  {
    "id": "christy-s-bar-node-11081770643",
    "name": "Christy's Bar",
    "lat": 53.7774305,
    "lon": -8.1039096
  },
  {
    "id": "christys-node-2217794786",
    "name": "Christys",
    "lat": 54.1006782,
    "lon": -9.32017
  },
  {
    "id": "churchtown-stores-node-5142751224",
    "name": "Churchtown Stores",
    "lat": 53.2957712,
    "lon": -6.2603223
  },
  {
    "id": "ciaran-s-bar-node-864066791",
    "name": "Ciaran’s Bar",
    "lat": 52.8452311,
    "lon": -8.9816499
  },
  {
    "id": "cissie-youngs-chij-7f75ioqregribi-py-l",
    "name": "Cissie Youngs",
    "lat": 51.8910571,
    "lon": -8.4879792,
    "town": "Cork",
    "county": "Cork",
    "addressText": "80 Bandon Road, Cork, Co. Cork, T12 DX34",
    "googleFormattedAddress": "80 Bandon Rd, The Lough, Cork, T12 DX34",
    "sourceName": "Cissie Young’s"
  },
  {
    "id": "clancy-node-7021818330",
    "name": "Clancy",
    "lat": 52.8559494,
    "lon": -9.4007161
  },
  {
    "id": "clancy-s-node-7727321148",
    "name": "Clancy's",
    "lat": 54.0114276,
    "lon": -8.1809448
  },
  {
    "id": "clancy-s-node-9999631555",
    "name": "Clancy’s",
    "lat": 52.159985,
    "lon": -7.1504682
  },
  {
    "id": "clancy-s-node-1178830358",
    "name": "Clancy’s",
    "lat": 52.9925955,
    "lon": -6.9809496
  },
  {
    "id": "clarendon-bar-node-957688048",
    "name": "Clarendon Bar",
    "lat": 55.000708,
    "lon": -7.3221224
  },
  {
    "id": "clarke-and-sons-node-9965777861",
    "name": "Clarke and Sons",
    "lat": 53.7160385,
    "lon": -6.3512632
  },
  {
    "id": "clarke-s-node-7821238279",
    "name": "Clarke’s",
    "lat": 52.3515149,
    "lon": -7.7155539
  },
  {
    "id": "clarke-s-node-13380910204",
    "name": "Clarke’s",
    "lat": 53.9034639,
    "lon": -8.5757948
  },
  {
    "id": "clarke-s-node-290774557",
    "name": "Clarke’s",
    "lat": 53.7159395,
    "lon": -6.3511632,
    "town": "Drogheda",
    "county": "Louth",
    "addressText": "Drogheda, Co. Louth",
    "googleFormattedAddress": "Drogheda, Co. Louth",
    "sourceName": "Clarke's Pub"
  },
  {
    "id": "clarke-s-bar-node-1604412694",
    "name": "Clarke's Bar",
    "lat": 53.6698873,
    "lon": -8.9569086
  },
  {
    "id": "clarke-s-bar-node-1469865362",
    "name": "Clarke's Bar",
    "lat": 53.6724745,
    "lon": -7.9888359
  },
  {
    "id": "clarkes-tavern-node-1601723601",
    "name": "Clarkes Tavern",
    "lat": 53.3998961,
    "lon": -8.9987167
  },
  {
    "id": "cleary-s-node-2893532903",
    "name": "Cleary's",
    "lat": 53.3416481,
    "lon": -6.3213608
  },
  {
    "id": "cleary-s-the-blondes-node-7021808712",
    "name": "Cleary's (The Blondes)",
    "lat": 52.8565419,
    "lon": -9.4009374
  },
  {
    "id": "cleeres-bar-theatre-manual",
    "name": "Cleere's Bar & Theatre",
    "lat": 52.6550488,
    "lon": -7.2551955,
    "town": "Kilkenny",
    "county": "Kilkenny",
    "addressText": "28 Parliament Street, Kilkenny, Co. Kilkenny, R95 YR61, Ireland",
    "googleFormattedAddress": "28 Parliament Street, Kilkenny, Co. Kilkenny, R95 YR61, Ireland",
    "sourceName": "Cleere's Bar & Theatre"
  },
  {
    "id": "clem-s-node-1720508165",
    "name": "Clem’s",
    "lat": 53.6535013,
    "lon": -6.6836162
  },
  {
    "id": "clifden-glen-club-house-bar-node-3997330157",
    "name": "Clifden Glen Club House & Bar",
    "lat": 53.487562,
    "lon": -9.9867436
  },
  {
    "id": "clifford-s-bar-node-6485656018",
    "name": "Clifford's Bar",
    "lat": 51.8426053,
    "lon": -8.8318856
  },
  {
    "id": "clifford-s-bar-node-2339353268",
    "name": "Clifford's Bar",
    "lat": 51.9117355,
    "lon": -8.0543973
  },
  {
    "id": "cliftonville-social-club-node-1647735175",
    "name": "Cliftonville Social Club",
    "lat": 54.6190735,
    "lon": -5.947253
  },
  {
    "id": "cloch-ban-chij65zgejkrqkgrainmn7jz",
    "name": "Cloch Ban",
    "lat": 52.449672299999996,
    "lon": -6.717098399999999,
    "town": "Clonroche",
    "county": "Wexford",
    "addressText": "Clonroche, Co. Wexford",
    "googleFormattedAddress": "Enniscorthy Road, Clonroche, Enniscorthy, Co. Wexford",
    "sourceName": "The Cloch Bán"
  },
  {
    "id": "clohessy-s-node-4021055466",
    "name": "Clohessy’s",
    "lat": 52.6638709,
    "lon": -8.6245516
  },
  {
    "id": "clonliffe-harriers-club-bar-node-976835207",
    "name": "Clonliffe Harriers Club Bar",
    "lat": 53.4014689,
    "lon": -6.2435438
  },
  {
    "id": "clonliffe-house-chijgdmzpv4oz0gr4ue58jf8",
    "name": "Clonliffe House",
    "lat": 53.3611607,
    "lon": -6.242637800000001,
    "town": "Dublin",
    "county": "Dublin",
    "addressText": "43-44 Ballybough Road, Dublin, Co. Dublin, D03 VE24",
    "googleFormattedAddress": "43 Ballybough Rd, Dublin 3, D03 VE24",
    "sourceName": "Clonliffe House"
  },
  {
    "id": "clonsilla-inn-chija22fpk1yz0graqduaaue",
    "name": "Clonsilla Inn",
    "lat": 53.38252,
    "lon": -6.407834599999999,
    "addressText": "Weaver's Row, Clonsilla, Dublin",
    "googleFormattedAddress": "Weaver's Row, Clonsilla, Dublin",
    "sourceName": "Clonsilla Inn"
  },
  {
    "id": "cloughjordan-inn-node-5943205631",
    "name": "Cloughjordan Inn",
    "lat": 52.9431123,
    "lon": -8.0386217
  },
  {
    "id": "club-cle-ire-node-854700751",
    "name": "Club Cléire",
    "lat": 51.4394203,
    "lon": -9.5043695
  },
  {
    "id": "club-soisialta-node-804421004",
    "name": "Club Soisialta",
    "lat": 55.2640821,
    "lon": -8.2337762
  },
  {
    "id": "coach-inn-node-3788157752",
    "name": "Coach Inn",
    "lat": 54.2940494,
    "lon": -7.4646623
  },
  {
    "id": "coach-inn-node-13182428687",
    "name": "Coach Inn",
    "lat": 54.3841098,
    "lon": -5.5455447
  },
  {
    "id": "coach-road-inn-node-292265923",
    "name": "Coach Road Inn",
    "lat": 52.4205267,
    "lon": -8.1815752
  },
  {
    "id": "coachhouse-lounge-node-11283413794",
    "name": "Coachhouse Lounge",
    "lat": 53.0957743,
    "lon": -7.910558
  },
  {
    "id": "coady-s-node-2075666542",
    "name": "Coady’s",
    "lat": 53.8582519,
    "lon": -9.2979342
  },
  {
    "id": "cobbler-s-bar-courtyard-node-5720905122",
    "name": "Cobbler’s Bar & Courtyard",
    "lat": 53.799064,
    "lon": -9.5252005
  },
  {
    "id": "cobbler-s-rest-node-864109897",
    "name": "Cobbler's Rest",
    "lat": 52.8843245,
    "lon": -8.5975055
  },
  {
    "id": "cobbles-bar-chijezrgolbbyegrboqogp9j",
    "name": "Cobbles Bar",
    "lat": 54.1765,
    "lon": -6.3383563,
    "town": "BT3 41BG",
    "county": "Down",
    "addressText": "15 The Mall, Newry, Co. Down, BT3 41BG",
    "googleFormattedAddress": "15 The Mall, Newry BT34 1BG, UK",
    "sourceName": "Cobbles"
  },
  {
    "id": "coffey-s-node-1084461594",
    "name": "Coffey’s",
    "lat": 53.1819981,
    "lon": -6.7953597
  },
  {
    "id": "cois-cuain-node-2474945028",
    "name": "Cois Cuain",
    "lat": 53.2442332,
    "lon": -9.3064897
  },
  {
    "id": "cois-life-bar-node-10576430555",
    "name": "Cois Life Bar",
    "lat": 53.3483928,
    "lon": -6.2556319
  },
  {
    "id": "colette-s-node-1937884715",
    "name": "Colette’s",
    "lat": 54.0154286,
    "lon": -7.5290622
  },
  {
    "id": "colfer-s-pub-node-12305031431",
    "name": "Colfer's Pub",
    "lat": 52.2399318,
    "lon": -6.7314957
  },
  {
    "id": "collins-club-chijk3a1jpqoz0gredghew6w",
    "name": "Collins Club",
    "lat": 53.339146199999995,
    "lon": -6.2454681999999995,
    "addressText": "7 Mount Street Lower, Dublin 2, D02 WK33",
    "googleFormattedAddress": "7 Mount Street Lower, Dublin 2, D02 WK33",
    "sourceName": "Collins Club"
  },
  {
    "id": "collins-hotel-bar-node-530664231",
    "name": "Collins Hotel Bar",
    "lat": 51.8160749,
    "lon": -8.3918799
  },
  {
    "id": "collins-bar-node-490025853",
    "name": "Collins' Bar",
    "lat": 52.6295274,
    "lon": -8.6431095
  },
  {
    "id": "collon-bar-node-1668873147",
    "name": "Collon Bar",
    "lat": 55.0162132,
    "lon": -7.3222278
  },
  {
    "id": "columbia-node-2306589528",
    "name": "Columbia",
    "lat": 53.5253319,
    "lon": -7.3415278
  },
  {
    "id": "coman-s-node-415803254",
    "name": "Coman's",
    "lat": 53.312007,
    "lon": -6.2748056
  },
  {
    "id": "comer-s-node-13067665104",
    "name": "Comer's",
    "lat": 53.6068523,
    "lon": -8.5603304
  },
  {
    "id": "compton-s-central-bar-node-11081759170",
    "name": "Compton's Central Bar",
    "lat": 53.7762859,
    "lon": -8.1037589
  },
  {
    "id": "con-cummin-s-node-1059878237",
    "name": "Con Cummin’s",
    "lat": 53.1820573,
    "lon": -6.795253
  },
  {
    "id": "con-j-smith-node-11746510619",
    "name": "Con J Smith",
    "lat": 54.0445937,
    "lon": -7.3773978
  },
  {
    "id": "con-s-node-300599695",
    "name": "Con's",
    "lat": 53.5239229,
    "lon": -7.3496032
  },
  {
    "id": "con-s-bar-node-1423970424",
    "name": "Con's Bar",
    "lat": 52.2306414,
    "lon": -9.4641842
  },
  {
    "id": "conabury-inn-node-11489824233",
    "name": "Conabury Inn",
    "lat": 54.1204814,
    "lon": -6.7359819
  },
  {
    "id": "coney-island-bar-node-10726001013",
    "name": "Coney Island Bar",
    "lat": 53.8036906,
    "lon": -8.6817446
  },
  {
    "id": "conlan-s-node-11495617187",
    "name": "Conlan's",
    "lat": 54.1274815,
    "lon": -6.9026524
  },
  {
    "id": "connaught-lounge-node-11079423539",
    "name": "Connaught Lounge",
    "lat": 53.4219426,
    "lon": -7.9472579
  },
  {
    "id": "connaughton-s-bar-node-6917916492",
    "name": "Connaughton's Bar",
    "lat": 53.9306052,
    "lon": -9.9252445
  },
  {
    "id": "connie-foxe-s-bar-and-steakhouse-node-12926002928",
    "name": "Connie Foxe's Bar and Steakhouse",
    "lat": 52.268684,
    "lon": -9.7050835
  },
  {
    "id": "connie-k-s-node-10582211889",
    "name": "Connie K's",
    "lat": 52.0840505,
    "lon": -9.2187087
  },
  {
    "id": "connolly-s-node-4298834889",
    "name": "Connolly’s",
    "lat": 53.1390988,
    "lon": -8.9363406
  },
  {
    "id": "connolly-s-the-sheds-chijps005gkpz0grumkjbyt2",
    "name": "Connolly's - The Sheds",
    "lat": 53.3591177,
    "lon": -6.1956551,
    "addressText": "198 Clontarf Rd, Clontarf, Dublin 3, D03 Y974",
    "googleFormattedAddress": "198 Clontarf Rd, Clontarf, Dublin 3, D03 Y974",
    "sourceName": "Connolly's - The Sheds"
  },
  {
    "id": "connolly-s-of-leap-chijzeirslsprugro-wotool",
    "name": "Connolly's of Leap",
    "lat": 51.580954299999995,
    "lon": -9.143743299999999,
    "town": "Leap",
    "county": "Cork",
    "addressText": "Kilmacabea, Leap, Co. Cork, P81 AK20",
    "googleFormattedAddress": "Main Street, Kilmacabea, Leap, Co. Cork, P81 AK20",
    "sourceName": "Connolly’s of Leap"
  },
  {
    "id": "connors-live-node-11117811614",
    "name": "Connors Live",
    "lat": 52.3461523,
    "lon": -7.4138761
  },
  {
    "id": "conoles-node-12354436681",
    "name": "Conoles",
    "lat": 53.1389145,
    "lon": -8.9377142
  },
  {
    "id": "conor-s-bar-node-11541024758",
    "name": "Conor's Bar",
    "lat": 54.2165345,
    "lon": -7.0435286
  },
  {
    "id": "considine-s-node-10961446083",
    "name": "Considine’s",
    "lat": 52.8440582,
    "lon": -8.9842216
  },
  {
    "id": "conway-s-node-2435852904",
    "name": "Conway’s",
    "lat": 53.3017544,
    "lon": -6.1781923
  },
  {
    "id": "cooke-s-thatch-bar-node-12029554541",
    "name": "Cooke’s Thatch Bar",
    "lat": 53.2724332,
    "lon": -9.0626716
  },
  {
    "id": "cookes-pub-node-4638904491",
    "name": "Cookes Pub",
    "lat": 53.2382311,
    "lon": -6.728826
  },
  {
    "id": "coolera-house-node-4788222174",
    "name": "Coolera House",
    "lat": 54.2351713,
    "lon": -8.5304777
  },
  {
    "id": "cooleys-node-11284601579",
    "name": "Cooleys",
    "lat": 52.9406479,
    "lon": -9.2936164
  },
  {
    "id": "cooper-s-corner-node-12691947431",
    "name": "Cooper’s Corner",
    "lat": 53.342514,
    "lon": -6.2966716
  },
  {
    "id": "coopers-node-766578213",
    "name": "Coopers",
    "lat": 55.1287233,
    "lon": -6.6696735
  },
  {
    "id": "coosan-tavern-chijfw7at6hjxegr73wej6uw",
    "name": "Coosan Tavern",
    "lat": 53.431531799999995,
    "lon": -7.9374353,
    "town": "Athlone",
    "county": "Westmeath",
    "addressText": "Coosan Point Road, Athlone, Co. Westmeath, N37 DP96",
    "googleFormattedAddress": "Arcadia, Athlone, Co. Westmeath",
    "sourceName": "Coosan Tavern"
  },
  {
    "id": "coote-sylvester-node-7154558096",
    "name": "Coote Sylvester",
    "lat": 52.7021356,
    "lon": -6.9586373
  },
  {
    "id": "copper-beech-node-4489024918",
    "name": "Copper Beech",
    "lat": 53.9208705,
    "lon": -9.1305595
  },
  {
    "id": "corbett-s-node-1809488684",
    "name": "Corbett’s",
    "lat": 52.6799938,
    "lon": -7.8072461
  },
  {
    "id": "corcoran-s-node-5593288270",
    "name": "Corcoran's",
    "lat": 52.3989241,
    "lon": -6.9306797
  },
  {
    "id": "corcoran-s-node-790517857",
    "name": "Corcoran's",
    "lat": 52.8555548,
    "lon": -7.5836567
  },
  {
    "id": "corcoran-s-node-11579435560",
    "name": "Corcoran’s",
    "lat": 52.6571924,
    "lon": -7.5461055
  },
  {
    "id": "cork-buzz-node-5607640738",
    "name": "Cork Buzz",
    "lat": 52.3410726,
    "lon": -6.4619514
  },
  {
    "id": "corkery-s-node-2424895963",
    "name": "Corkery's",
    "lat": 52.0604906,
    "lon": -9.0639437
  },
  {
    "id": "corkery-s-pub-node-845825942",
    "name": "Corkery's Pub",
    "lat": 52.1050886,
    "lon": -8.6906073
  },
  {
    "id": "corley-s-abbey-lounge-node-1590116189",
    "name": "Corley's Abbey Lounge",
    "lat": 53.7573291,
    "lon": -9.2822549
  },
  {
    "id": "corley-s-pub-node-4422017006",
    "name": "Corley's Pub",
    "lat": 53.8010403,
    "lon": -9.2164178
  },
  {
    "id": "cormack-s-node-9386298180",
    "name": "Cormack's",
    "lat": 52.5684119,
    "lon": -7.6736351
  },
  {
    "id": "corner-house-node-1186292561",
    "name": "Corner House",
    "lat": 51.9016621,
    "lon": -8.4709133
  },
  {
    "id": "corner-house-node-6159161525",
    "name": "Corner House",
    "lat": 52.7974448,
    "lon": -6.1623444
  },
  {
    "id": "corner-house-bar-node-9995596137",
    "name": "Corner House Bar",
    "lat": 53.3304276,
    "lon": -8.2215869
  },
  {
    "id": "cornerstone-node-12676697111",
    "name": "Cornerstone",
    "lat": 54.3472523,
    "lon": -7.6440376
  },
  {
    "id": "corny-s-node-8124797773",
    "name": "Corny's",
    "lat": 52.4742823,
    "lon": -8.1664685
  },
  {
    "id": "corranny-bar-node-2412512489",
    "name": "Corranny Bar",
    "lat": 54.2477277,
    "lon": -7.2684965
  },
  {
    "id": "corranny-lounge-node-2412512491",
    "name": "Corranny Lounge",
    "lat": 54.247756,
    "lon": -7.2685001
  },
  {
    "id": "corrig-house-node-11868814753",
    "name": "Corrig House",
    "lat": 53.1621334,
    "lon": -7.1897531
  },
  {
    "id": "corrigan-s-node-564399648",
    "name": "Corrigan’s",
    "lat": 53.3275519,
    "lon": -6.2616703
  },
  {
    "id": "corrigan-s-bar-node-3559353597",
    "name": "Corrigan's Bar",
    "lat": 53.4141517,
    "lon": -7.3001626
  },
  {
    "id": "corrigans-node-11489824234",
    "name": "Corrigans",
    "lat": 54.1204614,
    "lon": -6.7361569
  },
  {
    "id": "corrigans-bar-node-12339780851",
    "name": "Corrigans Bar",
    "lat": 51.9014112,
    "lon": -8.4660748
  },
  {
    "id": "corrigans-corner-house-chijrduamj9zxegrjxmmt-xz",
    "name": "Corrigans Corner House",
    "lat": 53.1897397,
    "lon": -7.9866313,
    "town": "Banagher",
    "county": "Offaly",
    "addressText": "Harbour Road, Banagher, Co. Offaly, R42 HP80",
    "googleFormattedAddress": "The Corner House, Main St, Curraghavarna And Portavolla, Banagher, Co. Offaly",
    "sourceName": "Corrigan’s Corner House"
  },
  {
    "id": "cosgroves-node-2471644896",
    "name": "Cosgroves",
    "lat": 53.9727458,
    "lon": -8.3050635
  },
  {
    "id": "costigan-s-node-2907674279",
    "name": "Costigan’s",
    "lat": 51.897368,
    "lon": -8.4802044
  },
  {
    "id": "cosy-bar-node-11805597630",
    "name": "Cosy Bar",
    "lat": 54.1010319,
    "lon": -7.4458781
  },
  {
    "id": "cosy-cabin-bar-node-1808564322",
    "name": "Cosy Cabin Bar",
    "lat": 51.6798175,
    "lon": -9.4499626
  },
  {
    "id": "cosy-joe-s-node-10696883100",
    "name": "Cosy Joe's",
    "lat": 53.7995215,
    "lon": -9.5220869
  },
  {
    "id": "cottage-inn-node-1610356214",
    "name": "Cottage Inn",
    "lat": 53.678739,
    "lon": -6.240173
  },
  {
    "id": "cotter-s-node-10045818788",
    "name": "Cotter's",
    "lat": 52.1755494,
    "lon": -8.2451117
  },
  {
    "id": "cotton-mill-node-370879119",
    "name": "Cotton Mill",
    "lat": 52.2858623,
    "lon": -7.3179126
  },
  {
    "id": "coughlans-bar-chijhcvprwsqregr3mgcmval",
    "name": "Coughlans Bar",
    "lat": 51.8925591,
    "lon": -8.468321399999999,
    "town": "Cork",
    "county": "Cork",
    "addressText": "7 Douglas Street, Cork, Co. Cork, T12 DX39",
    "googleFormattedAddress": "7 Douglas St, Ballintemple, Cork, T12 DX39",
    "sourceName": "Coughlan’s"
  },
  {
    "id": "counihans-bar-chijqriu-w-qregrme-tuzz-",
    "name": "Counihans Bar",
    "lat": 51.897838199999995,
    "lon": -8.4699812,
    "town": "Cork",
    "county": "Cork",
    "addressText": "3 Pembroke Street, Cork, Co. Cork, T12 HK12",
    "googleFormattedAddress": "3 Pembroke St, Centre, Cork, T12 HK12",
    "sourceName": "Counihans Bar"
  },
  {
    "id": "country-roads-inn-node-7673264577",
    "name": "Country Roads Inn",
    "lat": 55.1910511,
    "lon": -7.6872271
  },
  {
    "id": "county-bar-and-lounge-chijaxj6ke8mz0grylgjtq0c",
    "name": "County Bar and Lounge",
    "lat": 53.340932099999996,
    "lon": -6.3354121,
    "addressText": "51 Decies Rd, Ballyfermot, Dublin 10, D10 KW32",
    "googleFormattedAddress": "51 Decies Rd, Ballyfermot, Dublin 10, D10 KW32",
    "sourceName": "County Bar and Lounge"
  },
  {
    "id": "courthouse-node-11495475405",
    "name": "Courthouse",
    "lat": 53.9780778,
    "lon": -6.7191575
  },
  {
    "id": "courtney-s-node-4374363193",
    "name": "Courtney’s",
    "lat": 52.0585563,
    "lon": -9.5081023
  },
  {
    "id": "cove-bar-chijy4akri4gq0grdgr0l0ib",
    "name": "Cove Bar",
    "lat": 52.1312697,
    "lon": -7.461640699999999,
    "town": "Stradbally",
    "county": "Waterford",
    "addressText": "High Street, Stradbally, Co. Waterford, X42 HX40",
    "googleFormattedAddress": "Stradbally More, Stradbally, Co. Waterford",
    "sourceName": "Cove Bar"
  },
  {
    "id": "coyles-bar-node-1579559548",
    "name": "Coyles bar",
    "lat": 54.996377,
    "lon": -7.5221932
  },
  {
    "id": "coyotes-node-4261498091",
    "name": "Coyotes",
    "lat": 53.272794,
    "lon": -9.052812
  },
  {
    "id": "craft-co-node-9976702441",
    "name": "Craft & Co.",
    "lat": 51.6228994,
    "lon": -8.887678
  },
  {
    "id": "cra-ineen-s-node-4378143874",
    "name": "Cràineen’s",
    "lat": 51.9460383,
    "lon": -10.2270028
  },
  {
    "id": "crane-lane-theatre-node-1831022202",
    "name": "Crane Lane Theatre",
    "lat": 51.8977586,
    "lon": -8.4696656
  },
  {
    "id": "craughwell-s-pub-chijost-nsh3xegr8yjig6yf",
    "name": "Craughwell's Pub",
    "lat": 53.0938431,
    "lon": -7.9132586,
    "town": "Birr",
    "county": "Offaly",
    "addressText": "Castle Street, Birr, Co. Offaly",
    "googleFormattedAddress": "Castle St, Townparks, Co. Offaly",
    "sourceName": "Craughwell’s"
  },
  {
    "id": "crawford-co-node-1244199257",
    "name": "Crawford & Co.",
    "lat": 51.8951566,
    "lon": -8.4655871
  },
  {
    "id": "crawfords-bar-node-5358719785",
    "name": "Crawfords Bar",
    "lat": 53.7654544,
    "lon": -7.4489573
  },
  {
    "id": "creans-node-11254750480",
    "name": "Creans",
    "lat": 53.7686309,
    "lon": -7.1627529
  },
  {
    "id": "crescent-bar-node-2471094049",
    "name": "Crescent bar",
    "lat": 53.97025,
    "lon": -8.302467
  },
  {
    "id": "crew-brewing-taproom-node-9296557736",
    "name": "Crew Brewing Taproom",
    "lat": 52.6619333,
    "lon": -8.6236751
  },
  {
    "id": "criterion-node-414031718",
    "name": "Criterion",
    "lat": 51.8692039,
    "lon": -8.3339654
  },
  {
    "id": "criterion-bar-and-coffee-house-node-12389784824",
    "name": "Criterion Bar and Coffee House",
    "lat": 54.6077893,
    "lon": -5.9368654
  },
  {
    "id": "crockets-on-the-quay-node-2113417850",
    "name": "Crockets on the Quay",
    "lat": 54.1316902,
    "lon": -9.1372801
  },
  {
    "id": "crockett-s-bective-bar-node-1693858381",
    "name": "Crockett's (Bective Bar)",
    "lat": 53.5801123,
    "lon": -6.6974394
  },
  {
    "id": "croke-s-node-9983186841",
    "name": "Croke’s",
    "lat": 52.1610088,
    "lon": -7.1523125
  },
  {
    "id": "crokers-node-990448312",
    "name": "Crokers",
    "lat": 52.6524059,
    "lon": -8.3989995
  },
  {
    "id": "cronin-s-bar-node-4001261656",
    "name": "Cronin's Bar",
    "lat": 52.4510241,
    "lon": -9.0603214
  },
  {
    "id": "cronin-s-bar-node-5748992447",
    "name": "Cronin’s Bar",
    "lat": 51.8389024,
    "lon": -9.3162602
  },
  {
    "id": "cronin-s-pub-node-11784670242",
    "name": "Cronin's Pub",
    "lat": 53.9315005,
    "lon": -7.4090321
  },
  {
    "id": "cronin-s-teach-na-n-o-l-node-3019007145",
    "name": "Cronin's Teach Na n'Ól",
    "lat": 53.7626851,
    "lon": -9.8095154
  },
  {
    "id": "crosskeys-node-415509571",
    "name": "Crosskeys",
    "lat": 53.1048158,
    "lon": -7.0158526
  },
  {
    "id": "crossroads-inn-node-5018683170",
    "name": "Crossroads Inn",
    "lat": 53.7278505,
    "lon": -7.5032464
  },
  {
    "id": "crotty-s-traditional-irish-pub-node-878875029",
    "name": "Crotty’s Traditional Irish Pub",
    "lat": 52.6382595,
    "lon": -9.4845952
  },
  {
    "id": "crough-s-pub-node-6313378889",
    "name": "Crough's Pub",
    "lat": 53.2867241,
    "lon": -6.3898849
  },
  {
    "id": "crowbar-node-6659454386",
    "name": "Crowbar",
    "lat": 53.3450768,
    "lon": -6.2643305
  },
  {
    "id": "crowe-s-node-312577264",
    "name": "Crowe’s",
    "lat": 53.3291081,
    "lon": -6.2305605
  },
  {
    "id": "crowe-s-sports-bar-node-1601136157",
    "name": "Crowe’s Sports Bar",
    "lat": 53.2774145,
    "lon": -9.0465407
  },
  {
    "id": "crowley-s-node-10861357239",
    "name": "Crowley’s",
    "lat": 51.8792129,
    "lon": -9.5833746
  },
  {
    "id": "crowleys-node-1424361148",
    "name": "Crowleys",
    "lat": 52.1111565,
    "lon": -8.7830807
  },
  {
    "id": "crown-bar-node-5581103828",
    "name": "Crown Bar",
    "lat": 52.3414829,
    "lon": -6.4629213
  },
  {
    "id": "cruisers-node-915231765",
    "name": "Cruisers",
    "lat": 53.9806869,
    "lon": -9.1149664
  },
  {
    "id": "cruises-node-11898435432",
    "name": "Cruises",
    "lat": 52.8455241,
    "lon": -8.9817437
  },
  {
    "id": "crystal-bar-node-504986812",
    "name": "Crystal Bar",
    "lat": 53.2766878,
    "lon": -6.2205303
  },
  {
    "id": "cu-chulainn-s-node-6344025089",
    "name": "Cú Chulainn's",
    "lat": 53.3959848,
    "lon": -6.4400019
  },
  {
    "id": "cu-chulainn-s-at-croke-park-node-3158435067",
    "name": "Cú Chulainn's at Croke Park",
    "lat": 53.3563652,
    "lon": -6.2507754
  },
  {
    "id": "cuckoo-node-3487748987",
    "name": "Cuckoo",
    "lat": 54.5833366,
    "lon": -5.9451506
  },
  {
    "id": "cuil-darach-node-6828829747",
    "name": "Cuil Darach",
    "lat": 54.1797684,
    "lon": -7.2323124
  },
  {
    "id": "cullen-s-node-930072796",
    "name": "Cullen's",
    "lat": 53.5138411,
    "lon": -7.1425613
  },
  {
    "id": "culleton-s-bar-node-10815919871",
    "name": "Culleton's Bar",
    "lat": 52.3293336,
    "lon": -6.4760949
  },
  {
    "id": "cullinan-node-7716592834",
    "name": "Cullinan",
    "lat": 52.941528,
    "lon": -9.2935689
  },
  {
    "id": "culloville-house-node-4769165104",
    "name": "Culloville House",
    "lat": 54.0617886,
    "lon": -6.6437536
  },
  {
    "id": "cumiskey-s-node-2131267850",
    "name": "Cumiskey’s",
    "lat": 53.3543418,
    "lon": -6.2720059
  },
  {
    "id": "cunniffes-pub-node-1601684110",
    "name": "Cunniffes Pub",
    "lat": 53.3739831,
    "lon": -9.0166577
  },
  {
    "id": "cunningham-s-lounge-bar-node-1209487036",
    "name": "Cunningham's Lounge Bar",
    "lat": 53.5085364,
    "lon": -8.42951
  },
  {
    "id": "cunningham-s-pub-the-hideout-node-4797101658",
    "name": "Cunningham's Pub (The Hideout)",
    "lat": 53.4937525,
    "lon": -7.1564588
  },
  {
    "id": "cunninghams-node-1669500914",
    "name": "Cunninghams",
    "lat": 53.4906249,
    "lon": -7.6803781
  },
  {
    "id": "curley-s-bar-node-13042134706",
    "name": "Curley's Bar",
    "lat": 53.091747,
    "lon": -8.2207567
  },
  {
    "id": "curley-s-bar-node-11994832803",
    "name": "Curley's Bar",
    "lat": 53.7628617,
    "lon": -8.7651505
  },
  {
    "id": "curran-s-node-790517859",
    "name": "Curran's",
    "lat": 52.8551635,
    "lon": -7.5847569
  },
  {
    "id": "curtin-node-1424371674",
    "name": "Curtin",
    "lat": 52.1308183,
    "lon": -9.0128858
  },
  {
    "id": "cusacks-bar-node-12971402430",
    "name": "Cusacks Bar",
    "lat": 52.6793546,
    "lon": -7.8120598
  },
  {
    "id": "cushen-s-bar-node-2434525567",
    "name": "Cushen's Bar",
    "lat": 52.2437297,
    "lon": -6.3903243
  },
  {
    "id": "cyclist-s-rest-node-2702375088",
    "name": "Cyclist's Rest",
    "lat": 55.0755732,
    "lon": -7.4483644
  },
  {
    "id": "d-bar-node-10822354612",
    "name": "D Bar",
    "lat": 52.5027914,
    "lon": -6.565374
  },
  {
    "id": "d-breen-pub-node-13368235715",
    "name": "D Breen Pub",
    "lat": 52.7207032,
    "lon": -9.3194294
  },
  {
    "id": "d-usual-place-node-11805597629",
    "name": "D Usual Place",
    "lat": 54.1006496,
    "lon": -7.4455179
  },
  {
    "id": "d-two-node-775415430",
    "name": "D-Two",
    "lat": 53.3344059,
    "lon": -6.2629302
  },
  {
    "id": "d-mccarthy-node-9528186943",
    "name": "D. McCarthy",
    "lat": 51.9555591,
    "lon": -7.850054
  },
  {
    "id": "d-murphy-node-1791427947",
    "name": "D. Murphy",
    "lat": 52.1349056,
    "lon": -8.6410785
  },
  {
    "id": "d-o-sullivan-node-4352192538",
    "name": "D. O'Sullivan",
    "lat": 51.6340974,
    "lon": -9.8183888
  },
  {
    "id": "d-m-shelly-node-10617894791",
    "name": "D.M. Shelly",
    "lat": 53.0340494,
    "lon": -7.2996514
  },
  {
    "id": "d-alton-s-pub-node-932231117",
    "name": "D'Alton's Pub",
    "lat": 53.6109293,
    "lon": -8.2682152
  },
  {
    "id": "d-arcy-mcgee-s-node-4804586774",
    "name": "D’Arcy McGee’s",
    "lat": 53.2934407,
    "lon": -6.3236249
  },
  {
    "id": "da-vinci-s-node-1362192947",
    "name": "Da Vinci's",
    "lat": 55.0145536,
    "lon": -7.3128341
  },
  {
    "id": "daffy-s-node-13092573187",
    "name": "Daffy's",
    "lat": 52.3999201,
    "lon": -8.5739382
  },
  {
    "id": "dalton-s-node-4801674227",
    "name": "Dalton’s",
    "lat": 51.706291,
    "lon": -8.5235754
  },
  {
    "id": "daly-s-node-7900222714",
    "name": "Daly's",
    "lat": 52.3087786,
    "lon": -8.4079589
  },