[
  {
    "id": "restaurants-210-bistro-way-871730287",
    "name": "210 Bistro",
    "placeTypeId": "restaurant",
    "appId": "uk",
    "lat": 57.141999,
    "lon": -2.091861,
    "regionId": "aberdeen",
    "regionLabel": "Aberdeen",
    "locationLabel": "210 Market Street, Aberdeen, AB11 5PQ",
    "websiteUrl": "https://www.210bistro.com",
    "solarMode": "facade",
    "status": "unavailable",
    "foodOffer": {
      "category": "gastropub",
      "confidence": "confirmed"
    }
  },
  {
    "id": "restaurants-8848-node-9106209421",
    "name": "8848",
    "placeTypeId": "restaurant",
    "appId": "uk",
    "lat": 57.143966,
    "lon": -2.107378,
    "regionId": "aberdeen",
    "regionLabel": "Aberdeen",
    "locationLabel": "347 Union Street, Aberdeen, AB11 6BT",
    "websiteUrl": "https://www.8848restaurant.co.uk",
    "instagramUrl": "https://instagram.com/8848_aberdeen",
    "solarMode": "facade",
    "status": "unavailable",
    "foodOffer": {
      "category": "gastropub",
      "confidence": "confirmed"
    }
  },
  {
    "id": "restaurants-al-fresco-node-9496840077",
    "name": "Al Fresco",
    "placeTypeId": "restaurant",
    "appId": "uk",
    "lat": 57.143781,
    "lon": -2.105754,
    "regionId": "aberdeen",
    "regionLabel": "Aberdeen",
    "locationLabel": "15 Bon-Accord Street, Aberdeen, AB11 6FB",
    "websiteUrl": "https://www.alfresco-aberdeen.com",
    "instagramUrl": "https://instagram.com/al.fresco.restaurant.aberdeen",
    "solarMode": "facade",
    "status": "unavailable"
  },
  {
    "id": "restaurants-amarone-node-3488965949",
    "name": "Amarone",
    "placeTypeId": "restaurant",
    "appId": "uk",
    "lat": 57.144407,
    "lon": -2.105823,
    "regionId": "aberdeen",
    "regionLabel": "Aberdeen",
    "locationLabel": "257 Union Street, Aberdeen, AB11 6BR",
    "websiteUrl": "https://www.amaronerestaurant.co.uk",
    "solarMode": "facade",
    "status": "unavailable",
    "outdoorArea": {
      "type": "outdoor-seating",
      "confidence": "confirmed"
    }
  },
  {
    "id": "restaurants-amuse-by-kevin-dalgleish-node-13647661035",
    "name": "Amuse by Kevin Dalgleish",
    "placeTypeId": "restaurant",
    "appId": "uk",
    "lat": 57.143492,
    "lon": -2.119627,
    "regionId": "aberdeen",
    "regionLabel": "Aberdeen",
    "locationLabel": "1 Queen's Terrace, Aberdeen, AB10 1XL",
    "websiteUrl": "https://www.amuse-restaurant.com",
    "solarMode": "facade",
    "status": "unavailable"
  },
  {
    "id": "restaurants-ask-italian-node-1478313601",
    "name": "ASK Italian",
    "placeTypeId": "restaurant",
    "appId": "uk",
    "lat": 57.143566,
    "lon": -2.096557,
    "regionId": "aberdeen",
    "regionLabel": "Aberdeen",
    "locationLabel": "Union Square, Aberdeen, AB11 5RG",
    "websiteUrl": "https://www.askitalian.co.uk/italian/restaurants/aberdeen",
    "solarMode": "facade",
    "status": "unavailable",
    "wheelchairAccess": {
      "status": "yes",
      "confidence": "confirmed"
    }
  },
  {
    "id": "restaurants-bistro-verde-node-2671462995",
    "name": "Bistro Verde",
    "placeTypeId": "restaurant",
    "appId": "uk",
    "lat": 57.145889,
    "lon": -2.099199,
    "regionId": "aberdeen",
    "regionLabel": "Aberdeen",
    "locationLabel": "The Green, Aberdeen, AB11 6NY",
    "websiteUrl": "https://bistroverde.co.uk",
    "solarMode": "facade",
    "status": "unavailable"
  },
  {
    "id": "restaurants-chaophraya-node-2577278755",
    "name": "Chaophraya",
    "placeTypeId": "restaurant",
    "appId": "uk",
    "lat": 57.145641,
    "lon": -2.102703,
    "regionId": "aberdeen",
    "regionLabel": "Aberdeen",
    "locationLabel": "1 Union Terrace, Aberdeen, AB10 1NJ",
    "websiteUrl": "https://chaophraya.co.uk/aberdeen",
    "solarMode": "facade",
    "status": "unavailable"
  },
  {
    "id": "restaurants-cosmo-node-4589917338",
    "name": "Cosmo",
    "placeTypeId": "restaurant",
    "appId": "uk",
    "lat": 57.144459,
    "lon": -2.096344,
    "regionId": "aberdeen",
    "regionLabel": "Aberdeen",
    "locationLabel": "Guild Street, Aberdeen, AB11 5RG",
    "websiteUrl": "https://www.cosmo-restaurants.co.uk",
    "solarMode": "facade",
    "status": "unavailable"
  },
  {
    "id": "restaurants-el-node-9196499156",
    "name": "El",
    "placeTypeId": "restaurant",
    "appId": "uk",
    "lat": 57.147014,
    "lon": -2.098912,
    "regionId": "aberdeen",
    "regionLabel": "Aberdeen",
    "locationLabel": "13 Correction Wynd, Aberdeen, AB10 1HP",
    "websiteUrl": "https://www.el-restaurant.com",
    "solarMode": "facade",
    "status": "unavailable"
  },
  {
    "id": "restaurants-frankie-and-bennys-node-595491192",
    "name": "Frankie & Benny's",
    "placeTypeId": "restaurant",
    "appId": "uk",
    "lat": 57.143867,
    "lon": -2.096939,
    "regionId": "aberdeen",
    "regionLabel": "Aberdeen",
    "locationLabel": "Guild Street, Aberdeen, AB11 5RG",
    "websiteUrl": "https://www.frankieandbennys.com/restaurants/aberdeen-union-square",
    "solarMode": "facade",
    "status": "unavailable",
    "wheelchairAccess": {
      "status": "yes",
      "confidence": "confirmed"
    }
  },
  {
    "id": "restaurants-gidi-grill-node-11251612995",
    "name": "Gidi Grill",
    "placeTypeId": "restaurant",
    "appId": "uk",
    "lat": 57.144338,
    "lon": -2.10607,
    "regionId": "aberdeen",
    "regionLabel": "Aberdeen",
    "locationLabel": "263 Union Street, Aberdeen, AB11 6BR",
    "websiteUrl": "https://gidigrill.com",
    "instagramUrl": "https://instagram.com/gidi_grill",
    "solarMode": "facade",
    "status": "unavailable",
    "wheelchairAccess": {
      "status": "yes",
      "confidence": "confirmed"
    }
  },
  {
    "id": "restaurants-glenhouse-node-290633294",
    "name": "Glenhouse",
    "placeTypeId": "restaurant",
    "appId": "uk",
    "lat": 57.145003,
    "lon": -2.103692,
    "regionId": "aberdeen",
    "regionLabel": "Aberdeen",
    "locationLabel": "201 Union Street, Aberdeen, AB11 6BB",
    "websiteUrl": "https://glenhouseaberdeen.co.uk",
    "solarMode": "facade",
    "status": "unavailable"
  },
  {
    "id": "restaurants-heavenly-desserts-node-11167498515",
    "name": "Heavenly Desserts",
    "placeTypeId": "restaurant",
    "appId": "uk",
    "lat": 57.144898,
    "lon": -2.105498,
    "regionId": "aberdeen",
    "regionLabel": "Aberdeen",
    "locationLabel": "206A Union Street, Aberdeen, AB10 1QS",
    "websiteUrl": "https://www.heavenlydesserts.co.uk",
    "solarMode": "facade",
    "status": "unavailable"
  },
  {
    "id": "restaurants-jws-sushi-node-6060312517",
    "name": "JW's Sushi",
    "placeTypeId": "restaurant",
    "appId": "uk",
    "lat": 57.145962,
    "lon": -2.109234,
    "regionId": "aberdeen",
    "regionLabel": "Aberdeen",
    "locationLabel": "75 Huntly Street, Aberdeen, AB10 1TE",
    "websiteUrl": "https://www.jwsushi.co.uk",
    "solarMode": "facade",
    "status": "unavailable"
  },
  {
    "id": "restaurants-koi-thai-node-12468799260",
    "name": "Koi Thai",
    "placeTypeId": "restaurant",
    "appId": "uk",
    "lat": 57.150078,
    "lon": -2.115037,
    "regionId": "aberdeen",
    "regionLabel": "Aberdeen",
    "locationLabel": "104-106 Rosemount Place, Aberdeen, AB25 2XN",
    "websiteUrl": "https://www.koithairestaurant.com",
    "solarMode": "facade",
    "status": "unavailable"
  },
  {
    "id": "restaurants-madame-mews-node-8847043894",
    "name": "Madame Mew's",
    "placeTypeId": "restaurant",
    "appId": "uk",
    "lat": 57.144003,
    "lon": -2.109144,
    "regionId": "aberdeen",
    "regionLabel": "Aberdeen",
    "locationLabel": "7 Summer Street, Aberdeen, AB10 1SB",
    "websiteUrl": "https://www.madamemews.com",
    "solarMode": "facade",
    "status": "unavailable"
  },
  {
    "id": "restaurants-milton-on-the-corner-node-8779901362",
    "name": "Milton on the Corner",
    "placeTypeId": "restaurant",
    "appId": "uk",
    "lat": 57.149267,
    "lon": -2.124366,
    "regionId": "aberdeen",
    "regionLabel": "Aberdeen",
    "locationLabel": "1 Mid Stocket Road, Aberdeen, AB15 5NE",
    "websiteUrl": "https://miltononthecorner.co.uk",
    "solarMode": "facade",
    "status": "unavailable"
  },
  {
    "id": "restaurants-monsoona-node-9922902429",
    "name": "Monsoona",
    "placeTypeId": "restaurant",
    "appId": "uk",
    "lat": 57.144947,
    "lon": -2.101735,
    "regionId": "aberdeen",
    "regionLabel": "Aberdeen",
    "locationLabel": "20 Bridge street, Aberdeen, AB11 6JJ",
    "websiteUrl": "https://www.monsoona.co.uk",
    "solarMode": "facade",
    "status": "unavailable"
  },
  {
    "id": "restaurants-muzos-turkish-kitchen-way-1137691512",
    "name": "Muzo's Turkish Kitchen",
    "placeTypeId": "restaurant",
    "appId": "uk",
    "lat": 57.150747,
    "lon": -2.078168,
    "regionId": "aberdeen",
    "regionLabel": "Aberdeen",
    "locationLabel": "9 Esplanade, Aberdeen, AB24 5NS",
    "websiteUrl": "https://muzosturkishkitchen.co.uk",
    "solarMode": "facade",
    "status": "unavailable"
  },
  {
    "id": "restaurants-namaste-delhi-node-11329789956",
    "name": "Namaste Delhi",
    "placeTypeId": "restaurant",
    "appId": "uk",
    "lat": 57.143911,
    "lon": -2.100654,
    "regionId": "aberdeen",
    "regionLabel": "Aberdeen",
    "locationLabel": "64 Bridge Street, Aberdeen, AB11 6JN",
    "websiteUrl": "https://www.namastedelhi.co.uk",
    "solarMode": "facade",
    "status": "unavailable"
  },
  {
    "id": "restaurants-nandos-node-595491193",
    "name": "Nando's",
    "placeTypeId": "restaurant",
    "appId": "uk",
    "lat": 57.143403,
    "lon": -2.097313,
    "regionId": "aberdeen",
    "regionLabel": "Aberdeen",
    "locationLabel": "Union Square, Aberdeen, AB11 5RG",
    "websiteUrl": "https://www.nandos.co.uk/restaurants/aberdeen-union-square",
    "solarMode": "facade",
    "status": "unavailable",
    "wheelchairAccess": {
      "status": "yes",
      "confidence": "confirmed"
    }
  },
  {
    "id": "restaurants-oodles-node-1314114329",
    "name": "Oodles",
    "placeTypeId": "restaurant",
    "appId": "uk",
    "lat": 57.14487,
    "lon": -2.105597,
    "regionId": "aberdeen",
    "regionLabel": "Aberdeen",
    "locationLabel": "206B Union Street, Aberdeen, AB10 1QS",
    "websiteUrl": "https://oodleschinese.com",
    "solarMode": "facade",
    "status": "unavailable"
  },
  {
    "id": "restaurants-pizza-hut-node-1478313594",
    "name": "Pizza Hut",
    "placeTypeId": "restaurant",
    "appId": "uk",
    "lat": 57.143529,
    "lon": -2.097466,
    "regionId": "aberdeen",
    "regionLabel": "Aberdeen",
    "locationLabel": "Guild Street, Aberdeen, AB11 5RG",
    "websiteUrl": "https://www.pizzahut.co.uk/restaurants/find/details/aberdeenunionsquare",
    "solarMode": "facade",
    "status": "unavailable",
    "wheelchairAccess": {
      "status": "yes",
      "confidence": "confirmed"
    },
    "foodTags": {
      "tags": [
        "pizza"
      ],
      "confidence": "confirmed"
    }
  },
  {
    "id": "restaurants-pizza-hut-way-411829887",
    "name": "Pizza Hut",
    "placeTypeId": "restaurant",
    "appId": "uk",
    "lat": 57.150287,
    "lon": -2.07772,
    "regionId": "aberdeen",
    "regionLabel": "Aberdeen",
    "locationLabel": "Aberdeen, AB24 5EN",
    "websiteUrl": "https://www.pizzahut.co.uk/restaurants/find/details/aberdeenbeach",
    "solarMode": "facade",
    "status": "unavailable",
    "foodTags": {
      "tags": [
        "pizza"
      ],
      "confidence": "confirmed"
    }
  },
  {
    "id": "restaurants-pizzaexpress-node-1105369534",
    "name": "PizzaExpress",
    "placeTypeId": "restaurant",
    "appId": "uk",
    "lat": 57.14383,
    "lon": -2.10905,
    "regionId": "aberdeen",
    "regionLabel": "Aberdeen",
    "locationLabel": "402-404 Union Street, Aberdeen, AB10 1TQ",
    "websiteUrl": "https://www.pizzaexpress.com/aberdeen-union-street",
    "solarMode": "facade",
    "status": "unavailable",
    "foodTags": {
      "tags": [
        "pizza"
      ],
      "confidence": "confirmed"
    }
  },
  {
    "id": "restaurants-pizzaexpress-node-6521564722",
    "name": "PizzaExpress",
    "placeTypeId": "restaurant",
    "appId": "uk",
    "lat": 57.14285,
    "lon": -2.096638,
    "regionId": "aberdeen",
    "regionLabel": "Aberdeen",
    "locationLabel": "Guild Street, Aberdeen, AB11 5RG",
    "websiteUrl": "https://www.pizzaexpress.com/aberdeen-union-square-shopping-centre",
    "solarMode": "facade",
    "status": "unavailable",
    "foodTags": {
      "tags": [
        "pizza"
      ],
      "confidence": "confirmed"
    }
  },
  {
    "id": "restaurants-rishis-indian-aroma-node-2525973908",
    "name": "Rishis Indian Aroma",
    "placeTypeId": "restaurant",
    "appId": "uk",
    "lat": 57.150967,
    "lon": -2.102307,
    "regionId": "aberdeen",
    "regionLabel": "Aberdeen",
    "locationLabel": "210 George Street, Aberdeen, AB25 1BS",
    "websiteUrl": "https://www.rishistakeawayaberdeen.co.uk",
    "solarMode": "facade",
    "status": "unavailable"
  },
  {
    "id": "restaurants-royal-thai-node-11195924199",
    "name": "Royal Thai",
    "placeTypeId": "restaurant",
    "appId": "uk",
    "lat": 57.143921,
    "lon": -2.101049,
    "regionId": "aberdeen",
    "regionLabel": "Aberdeen",
    "locationLabel": "29 Crown Terrace, Aberdeen, AB11 6HD",
    "websiteUrl": "https://www.royalthaiaberdeen.com",
    "solarMode": "facade",
    "status": "unavailable"
  },
  {
    "id": "restaurants-rustico-way-1225262022",
    "name": "Rustico",
    "placeTypeId": "restaurant",
    "appId": "uk",
    "lat": 57.144473,
    "lon": -2.10905,
    "regionId": "aberdeen",
    "regionLabel": "Aberdeen",
    "locationLabel": "62-66 Union Row, Aberdeen, AB10 1SA",
    "websiteUrl": "https://rustico-restaurant.co.uk",
    "solarMode": "facade",
    "status": "unavailable"
  },
  {
    "id": "restaurants-seoul-node-6053243653",
    "name": "Seoul",
    "placeTypeId": "restaurant",
    "appId": "uk",
    "lat": 57.14458,
    "lon": -2.103334,
    "regionId": "aberdeen",
    "regionLabel": "Aberdeen",
    "locationLabel": "13 Crown Street, Aberdeen, AB11 6HA",
    "websiteUrl": "https://www.seoul-aberdeen.co.uk",
    "solarMode": "facade",
    "status": "unavailable"
  },
  {
    "id": "restaurants-shabaaz-node-1314114348",
    "name": "Shabaaz",
    "placeTypeId": "restaurant",
    "appId": "uk",
    "lat": 57.143715,
    "lon": -2.111204,
    "regionId": "aberdeen",
    "regionLabel": "Aberdeen",
    "locationLabel": "19 Rose Street, Aberdeen, AB10 1TX",
    "websiteUrl": "https://www.shahbaaz-tandoori.com",
    "solarMode": "facade",
    "status": "unavailable"
  },
  {
    "id": "restaurants-silver-darling-way-1087973763",
    "name": "Silver Darling",
    "placeTypeId": "restaurant",
    "appId": "uk",
    "lat": 57.142442,
    "lon": -2.069789,
    "regionId": "aberdeen",
    "regionLabel": "Aberdeen",
    "locationLabel": "Pocra Quay, Aberdeen, AB11 5DQ",
    "websiteUrl": "https://www.thesilverdarling.co.uk",
    "solarMode": "facade",
    "status": "unavailable"
  },
  {
    "id": "restaurants-six-by-nico-node-290633283",
    "name": "Six By Nico",
    "placeTypeId": "restaurant",
    "appId": "uk",
    "lat": 57.143828,
    "lon": -2.10789,
    "regionId": "aberdeen",
    "regionLabel": "Aberdeen",
    "locationLabel": "367 Union Street, Aberdeen, AB11 6BT",
    "websiteUrl": "https://www.sixbynico.co.uk/aberdeen",
    "solarMode": "facade",
    "status": "unavailable"
  },
  {
    "id": "restaurants-social-monkey-node-11251877485",
    "name": "Social Monkey",
    "placeTypeId": "restaurant",
    "appId": "uk",
    "lat": 57.143995,
    "lon": -2.107271,
    "regionId": "aberdeen",
    "regionLabel": "Aberdeen",
    "locationLabel": "345 Union Street, Aberdeen, AB11 6BS",
    "websiteUrl": "https://socialmonkey.uk",
    "solarMode": "facade",
    "status": "unavailable"
  },
  {
    "id": "restaurants-tarragon-node-864934412",
    "name": "Tarragon",
    "placeTypeId": "restaurant",
    "appId": "uk",
    "lat": 57.149618,
    "lon": -2.116783,
    "regionId": "aberdeen",
    "regionLabel": "Aberdeen",
    "locationLabel": "137 Rosemount Place, Aberdeen, AB25 2YH",
    "websiteUrl": "https://tarragoncatering.co.uk",
    "solarMode": "facade",
    "status": "unavailable"
  },
  {
    "id": "restaurants-tasty-t-node-11181761684",
    "name": "Tasty T",
    "placeTypeId": "restaurant",
    "appId": "uk",
    "lat": 57.146843,
    "lon": -2.098944,
    "regionId": "aberdeen",
    "regionLabel": "Aberdeen",
    "locationLabel": "19 Correction Wynd, Aberdeen, AB10 1HP",
    "websiteUrl": "https://tastytaberdeen.co.uk",
    "solarMode": "facade",
    "status": "unavailable"
  },
  {
    "id": "restaurants-tgi-fridays-node-1478313595",
    "name": "TGI Fridays",
    "placeTypeId": "restaurant",
    "appId": "uk",
    "lat": 57.143648,
    "lon": -2.097612,
    "regionId": "aberdeen",
    "regionLabel": "Aberdeen",
    "locationLabel": "Guild Street, Aberdeen, AB11 5RG",
    "websiteUrl": "https://www.tgifridays.co.uk/restaurant/aberdeen-union-square",
    "solarMode": "facade",
    "status": "unavailable",
    "wheelchairAccess": {
      "status": "yes",
      "confidence": "confirmed"
    }
  },
  {
    "id": "restaurants-the-atrium-node-4590032260",
    "name": "The Atrium",
    "placeTypeId": "restaurant",
    "appId": "uk",
    "lat": 57.14494,
    "lon": -2.109938,
    "regionId": "aberdeen",
    "regionLabel": "Aberdeen",
    "locationLabel": "50 Chapel Street, Aberdeen, AB10 1SN",
    "websiteUrl": "https://www.theatriumaberdeen.com",
    "solarMode": "facade",
    "status": "unavailable"
  },
  {
    "id": "restaurants-the-braided-fig-way-1225239409",
    "name": "The Braided Fig",
    "placeTypeId": "restaurant",
    "appId": "uk",
    "lat": 57.145001,
    "lon": -2.109447,
    "regionId": "aberdeen",
    "regionLabel": "Aberdeen",
    "locationLabel": "39 Summer Street, Aberdeen, AB10 1SB",
    "websiteUrl": "https://thebraidedfig.co.uk",
    "solarMode": "facade",
    "status": "unavailable"
  },
  {
    "id": "restaurants-the-everest-node-1383400114",
    "name": "The Everest",
    "placeTypeId": "restaurant",
    "appId": "uk",
    "lat": 57.143224,
    "lon": -2.11123,
    "regionId": "aberdeen",
    "regionLabel": "Aberdeen",
    "locationLabel": "476 Union Street, Aberdeen, AB10 1TS",
    "websiteUrl": "https://www.theeverestaberdeen.co.uk",
    "solarMode": "facade",
    "status": "unavailable"
  },
  {
    "id": "restaurants-the-nawaabs-tandoori-node-6055343960",
    "name": "The Nawaabs Tandoori",
    "placeTypeId": "restaurant",
    "appId": "uk",
    "lat": 57.144771,
    "lon": -2.109492,
    "regionId": "aberdeen",
    "regionLabel": "Aberdeen",
    "locationLabel": "33 Summer Street, Aberdeen, AB10 1SB",
    "websiteUrl": "https://nawaabsaberdeen.co.uk",
    "solarMode": "facade",
    "status": "unavailable"
  },
  {
    "id": "restaurants-travancore-node-9115251750",
    "name": "Travancore",
    "placeTypeId": "restaurant",
    "appId": "uk",
    "lat": 57.142584,
    "lon": -2.111768,
    "regionId": "aberdeen",
    "regionLabel": "Aberdeen",
    "locationLabel": "11 Holburn Street, Aberdeen, AB10 6BS",
    "websiteUrl": "https://www.travancorerestaurant.co.uk",
    "solarMode": "facade",
    "status": "unavailable"
  },
  {
    "id": "restaurants-vovem-meat-and-liquor-node-6054432447",
    "name": "Vovem Meat & Liquor",
    "placeTypeId": "restaurant",
    "appId": "uk",
    "lat": 57.144177,
    "lon": -2.108026,
    "regionId": "aberdeen",
    "regionLabel": "Aberdeen",
    "locationLabel": "254 Union Street, Aberdeen, AB10 1TN",
    "websiteUrl": "https://www.vovem.co.uk",
    "instagramUrl": "https://instagram.com/vovem_aberdeen",
    "solarMode": "facade",
    "status": "unavailable"
  },
  {
    "id": "restaurants-wagamama-node-1478313597",
    "name": "Wagamama",
    "placeTypeId": "restaurant",
    "appId": "uk",
    "lat": 57.144018,
    "lon": -2.097131,
    "regionId": "aberdeen",
    "regionLabel": "Aberdeen",
    "locationLabel": "Guild Street, Aberdeen, AB11 5RG",
    "websiteUrl": "https://wagamama.com/restaurants/aberdeen/aberdeen",
    "solarMode": "facade",
    "status": "unavailable",
    "wheelchairAccess": {
      "status": "yes",
      "confidence": "confirmed"
    }
  },
  {
    "id": "restaurants-wild-ginger-node-9108652077",
    "name": "Wild Ginger",
    "placeTypeId": "restaurant",
    "appId": "uk",
    "lat": 57.14369,
    "lon": -2.107766,
    "regionId": "aberdeen",
    "regionLabel": "Aberdeen",
    "locationLabel": "367 Union Street, Aberdeen, AB11 6BT",
    "websiteUrl": "https://www.wildgingeronline.co.uk",
    "solarMode": "facade",
    "status": "unavailable"
  },
  {
    "id": "restaurants-wild-goose-way-1126821302",
    "name": "Wild Goose",
    "placeTypeId": "restaurant",
    "appId": "uk",
    "lat": 57.145958,
    "lon": -2.102459,
    "regionId": "aberdeen",
    "regionLabel": "Aberdeen",
    "locationLabel": "Union Terrace, Aberdeen, AB11 6SL",
    "websiteUrl": "https://wild-goose.co.uk",
    "solarMode": "facade",
    "status": "unavailable"
  },
  {
    "id": "restaurants-yo-sushi-node-1478313603",
    "name": "YO! Sushi",
    "placeTypeId": "restaurant",
    "appId": "uk",
    "lat": 57.143736,
    "lon": -2.097719,
    "regionId": "aberdeen",
    "regionLabel": "Aberdeen",
    "locationLabel": "Guild Street, Aberdeen, AB11 5RG",
    "websiteUrl": "https://yosushi.com/restaurants/aberdeen-union-square",
    "solarMode": "facade",
    "status": "unavailable",
    "wheelchairAccess": {
      "status": "yes",
      "confidence": "confirmed"
    }
  },
  {
    "id": "restaurants-zizzi-node-1478313598",
    "name": "Zizzi",
    "placeTypeId": "restaurant",
    "appId": "uk",
    "lat": 57.144193,
    "lon": -2.097354,
    "regionId": "aberdeen",
    "regionLabel": "Aberdeen",
    "locationLabel": "Guild Street, Aberdeen, AB11 5RG",
    "websiteUrl": "https://www.zizzi.co.uk/italian/restaurants/aberdeen",
    "solarMode": "facade",
    "status": "unavailable",
    "wheelchairAccess": {
      "status": "yes",
      "confidence": "confirmed"
    }
  },
  {
    "id": "restaurants-golden-palace-way-227115753",
    "name": "九香阁 Golden Palace",
    "placeTypeId": "restaurant",
    "appId": "uk",
    "lat": 57.176442,
    "lon": -2.08972,
    "regionId": "aberdeen",
    "regionLabel": "Aberdeen",
    "locationLabel": "2 Ellon Road, Aberdeen, AB23 8EA",
    "websiteUrl": "https://www.goldenpalaceaberdeen.co.uk",
    "solarMode": "facade",
    "status": "unavailable"
  },
  {
    "id": "restaurants-beijing-node-2552974580",
    "name": "Beijing",
    "placeTypeId": "restaurant",
    "appId": "uk",
    "lat": 51.371044,
    "lon": -0.492092,
    "regionId": "london",
    "regionLabel": "Addlestone",
    "locationLabel": "15-17 Station Road, Addlestone, KT15 2AL",
    "websiteUrl": "https://www.beijingrestaurantaddlestone.co.uk",
    "solarMode": "facade",
    "status": "unavailable"
  },
  {
    "id": "restaurants-don-papa-node-4610472958",
    "name": "Don Papa",
    "placeTypeId": "restaurant",
    "appId": "uk",
    "lat": 51.372939,
    "lon": -0.483764,
    "regionId": "london",
    "regionLabel": "Addlestone",
    "locationLabel": "198 Station Road, Addlestone, KT15 2PD",
    "websiteUrl": "https://donpaparestaurant.com",
    "solarMode": "facade",
    "status": "unavailable",
    "wheelchairAccess": {
      "status": "yes",
      "confidence": "confirmed"
    }
  },
  {
    "id": "restaurants-nandos-node-7316781283",
    "name": "Nando's",
    "placeTypeId": "restaurant",
    "appId": "uk",
    "lat": 51.371109,
    "lon": -0.490038,
    "regionId": "london",
    "regionLabel": "Addlestone",
    "locationLabel": "Station Road, Addlestone, KT15 2GN",
    "websiteUrl": "https://www.nandos.co.uk/restaurants/addlestone",
    "solarMode": "facade",
    "status": "unavailable"
  },
  {
    "id": "restaurants-smith-and-western-node-6448005096",
    "name": "Smith and Western",
    "placeTypeId": "restaurant",
    "appId": "uk",
    "lat": 51.37037,
    "lon": -0.489919,
    "regionId": "london",
    "regionLabel": "Addlestone",
    "locationLabel": "Market Street, Addlestone, KT15 2GN",
    "websiteUrl": "https://www.smith-western.co.uk/addlestone",
    "solarMode": "facade",
    "status": "unavailable"
  },
  {
    "id": "restaurants-terra-brazil-brazilian-steakhouse-rozidio-node-9519153994",
    "name": "Terra Brazil Brazilian Steakhouse Rozidio",
    "placeTypeId": "restaurant",
    "appId": "uk",
    "lat": 51.370755,
    "lon": -0.489874,
    "regionId": "london",
    "regionLabel": "Addlestone",
    "locationLabel": "The Lane, Addlestone, KT15 2GN",
    "websiteUrl": "https://terrabrazil.co.uk",
    "solarMode": "facade",
    "status": "unavailable"
  },
  {
    "id": "restaurants-tuk-tuk-pan-asian-node-3361974058",
    "name": "Tuk Tuk Pan Asian",
    "placeTypeId": "restaurant",
    "appId": "uk",
    "lat": 51.372646,
    "lon": -0.484423,
    "regionId": "london",
    "regionLabel": "Addlestone",
    "locationLabel": "182 Station Road, Addlestone, KT15 2BD",
    "websiteUrl": "https://tuktukpanasian.co.uk",
    "solarMode": "facade",
    "status": "unavailable"
  },
  {
    "id": "restaurants-domus-italia-node-6400888536",
    "name": "Domus Italia",
    "placeTypeId": "restaurant",
    "appId": "uk",
    "lat": 53.386034,
    "lon": -2.350563,
    "regionId": "manchester",
    "regionLabel": "Altrincham",
    "locationLabel": "Stamford New Road, Altrincham",
    "websiteUrl": "https://domusitalia.co.uk/Altrincham",
    "solarMode": "facade",
    "status": "unavailable"
  },
  {
    "id": "restaurants-greyhound-inn-way-1233502124",
    "name": "Greyhound Inn",
    "placeTypeId": "restaurant",
    "appId": "uk",
    "lat": 53.35467,
    "lon": -2.3393,
    "regionId": "manchester",
    "regionLabel": "Altrincham",
    "locationLabel": "1 Cow Lane, Altrincham, WA15 0QR",
    "websiteUrl": "https://www.thegreyhoundashley.co.uk",
    "solarMode": "facade",
    "status": "unavailable"
  },
  {
    "id": "restaurants-little-dessert-shop-node-8752204110",
    "name": "Little Dessert Shop",
    "placeTypeId": "restaurant",
    "appId": "uk",
    "lat": 53.387341,
    "lon": -2.348628,
    "regionId": "manchester",
    "regionLabel": "Altrincham",
    "locationLabel": "32 Stamford New Road, Altrincham, WA14 1EJ",
    "websiteUrl": "https://www.littledessertshop.co.uk/stores/8",
    "solarMode": "facade",
    "status": "unavailable"
  },
  {
    "id": "restaurants-nandos-node-5035594272",
    "name": "Nando's",
    "placeTypeId": "restaurant",
    "appId": "uk",
    "lat": 53.38706,
    "lon": -2.348994,
    "regionId": "manchester",
    "regionLabel": "Altrincham",
    "locationLabel": "Altrincham",
    "websiteUrl": "https://www.nandos.co.uk/restaurants/altrincham",
    "solarMode": "facade",
    "status": "unavailable"
  },
  {
    "id": "restaurants-rudys-node-13041063708",
    "name": "Rudy's",
    "placeTypeId": "restaurant",
    "appId": "uk",
    "lat": 53.386803,
    "lon": -2.351309,
    "regionId": "manchester",
    "regionLabel": "Altrincham",
    "locationLabel": "1 Central Way, Altrincham, WA14 1SB",
    "websiteUrl": "https://www.rudyspizza.co.uk/menu/altrincham-greater-manchester",
    "solarMode": "facade",
    "status": "unavailable",
    "foodOffer": {
      "category": "burger-pizza-sandwich",
      "confidence": "confirmed"
    },
    "foodTags": {
      "tags": [
        "pizza"
      ],
      "confidence": "confirmed"
    }
  },
  {
    "id": "restaurants-unagis-node-13041061592",
    "name": "Unagi's",
    "placeTypeId": "restaurant",
    "appId": "uk",
    "lat": 53.387119,
    "lon": -2.350974,
    "regionId": "manchester",
    "regionLabel": "Altrincham",
    "locationLabel": "1A Central Way, Altrincham, WA14 1SB",
    "websiteUrl": "https://unagiuk.com",
    "solarMode": "facade",
    "status": "unavailable"
  },
  {
    "id": "restaurants-indian-ocean-node-3705335142",
    "name": "Indian Ocean",
    "placeTypeId": "restaurant",
    "appId": "uk",
    "lat": 51.422379,
    "lon": -0.441848,
    "regionId": "london",
    "regionLabel": "Ashford",
    "locationLabel": "359 Staines Road West, Ashford, TW15 1RP",
    "websiteUrl": "https://www.indianoceanashford.com",
    "solarMode": "facade",
    "status": "unavailable"
  },
  {
    "id": "restaurants-little-bodrum-node-3573166744",
    "name": "Little Bodrum",
    "placeTypeId": "restaurant",
    "appId": "uk",
    "lat": 51.432848,
    "lon": -0.462517,
    "regionId": "london",
    "regionLabel": "Ashford",
    "locationLabel": "7 Church Parade, Ashford, TW15 2TX",
    "websiteUrl": "https://www.littlebodrum.com",
    "solarMode": "facade",
    "status": "unavailable"
  },
  {
    "id": "restaurants-m2-pizza-pasta-node-3572537307",
    "name": "M2 Pizza Pasta",
    "placeTypeId": "restaurant",
    "appId": "uk",
    "lat": 51.434917,
    "lon": -0.465885,
    "regionId": "london",
    "regionLabel": "Ashford",
    "locationLabel": "15 Church Road, Ashford, TW15 2UG",
    "websiteUrl": "https://www.m2pizzapasta.co.uk",
    "solarMode": "facade",
    "status": "unavailable",
    "foodTags": {
      "tags": [
        "pizza"
      ],
      "confidence": "confirmed"
    }
  },
  {
    "id": "restaurants-soaltee-node-3573166720",
    "name": "Soaltee",
    "placeTypeId": "restaurant",
    "appId": "uk",
    "lat": 51.43237,
    "lon": -0.459587,
    "regionId": "london",
    "regionLabel": "Ashford",
    "locationLabel": "102 Church Road, Ashford, TW15 2PL",
    "websiteUrl": "https://soalteerestaurant.co.uk",
    "solarMode": "facade",
    "status": "unavailable"
  },
  {
    "id": "restaurants-taksim-mezze-grill-node-3705335152",
    "name": "Taksim Mezze Grill",
    "placeTypeId": "restaurant",
    "appId": "uk",
    "lat": 51.422338,
    "lon": -0.441464,
    "regionId": "london",
    "regionLabel": "Ashford",
    "locationLabel": "351 Staines Road West, Ashford, TW15 1RP",
    "websiteUrl": "https://taksimmezzegrill.co.uk",
    "solarMode": "facade",
    "status": "unavailable"
  },
  {
    "id": "restaurants-tamannas-indian-cuisine-node-3572537301",
    "name": "Tamannas Indian Cuisine",
    "placeTypeId": "restaurant",
    "appId": "uk",
    "lat": 51.435551,
    "lon": -0.466579,
    "regionId": "london",
    "regionLabel": "Ashford",
    "locationLabel": "15A Station Road, Ashford, TW15 2UP",
    "websiteUrl": "https://tamannas-ashford.co.uk/delivery",
    "solarMode": "facade",
    "status": "unavailable"
  },
  {
    "id": "restaurants-two-brothers-fish-house-way-351521122",
    "name": "Two Brothers Fish House",
    "placeTypeId": "restaurant",
    "appId": "uk",
    "lat": 51.43421,
    "lon": -0.464879,
    "regionId": "london",
    "regionLabel": "Ashford",
    "locationLabel": "20 Church Road, Ashford, TW15 2UY",
    "websiteUrl": "https://www.twobrothersfishhouse.com",
    "solarMode": "facade",
    "status": "unavailable"
  },
  {
    "id": "restaurants-bella-italia-node-3682899795",
    "name": "Bella Italia",
    "placeTypeId": "restaurant",
    "appId": "uk",
    "lat": 53.488936,
    "lon": -2.111991,
    "regionId": "manchester",
    "regionLabel": "Ashton-under-Lyne",
    "locationLabel": "Fold Way, Ashton-under-Lyne, OL7 0PG",
    "websiteUrl": "https://www.bellaitalia.co.uk/restaurants/manchester/ashton-under-lyne",
    "solarMode": "facade",
    "status": "unavailable"
  },
  {
    "id": "restaurants-pizza-hut-way-215498200",
    "name": "Pizza Hut",
    "placeTypeId": "restaurant",
    "appId": "uk",
    "lat": 53.478148,
    "lon": -2.127606,
    "regionId": "manchester",
    "regionLabel": "Ashton-under-Lyne",
    "locationLabel": "Snipe Way, Ashton-under-Lyne, OL7 0DN",
    "websiteUrl": "https://www.pizzahut.co.uk/restaurants/find/details/ashtonunderlyne",
    "solarMode": "facade",
    "status": "unavailable",
    "wheelchairAccess": {
      "status": "yes",
      "confidence": "confirmed"
    },
    "foodTags": {
      "tags": [
        "pizza"
      ],
      "confidence": "confirmed"
    }
  },
  {
    "id": "restaurants-wagamama-node-3682899596",
    "name": "Wagamama",
    "placeTypeId": "restaurant",
    "appId": "uk",
    "lat": 53.488809,
    "lon": -2.112155,
    "regionId": "manchester",
    "regionLabel": "Ashton-under-Lyne",
    "locationLabel": "Fold Way, Ashton-under-Lyne, OL7 0PG",
    "websiteUrl": "https://wagamama.com/restaurants/ashton/unit-2-fold-way",
    "solarMode": "facade",
    "status": "unavailable"
  },
  {
    "id": "restaurants-pizzaexpress-node-5996592129",
    "name": "PizzaExpress",
    "placeTypeId": "restaurant",
    "appId": "uk",
    "lat": 51.321922,
    "lon": -0.203722,
    "regionId": "london",
    "regionLabel": "Banstead",
    "locationLabel": "24 High Street, Banstead, SM7 2LJ",
    "websiteUrl": "https://www.pizzaexpress.com/banstead-high-street",
    "solarMode": "facade",
    "status": "unavailable",
    "foodTags": {
      "tags": [
        "pizza"
      ],
      "confidence": "confirmed"
    }
  },
  {
    "id": "restaurants-zizzi-way-465488142",
    "name": "Zizzi",
    "placeTypeId": "restaurant",
    "appId": "uk",
    "lat": 51.322193,
    "lon": -0.204976,
    "regionId": "london",
    "regionLabel": "Banstead",
    "locationLabel": "1 High Street, Banstead, SM7 2NE",
    "websiteUrl": "https://www.zizzi.co.uk/italian/restaurants/banstead",
    "solarMode": "facade",
    "status": "unavailable"
  },
  {
    "id": "restaurants-nandos-node-3210019980",
    "name": "Nando's",
    "placeTypeId": "restaurant",
    "appId": "uk",
    "lat": 51.539672,
    "lon": 0.082135,
    "regionId": "london",
    "regionLabel": "Barking",
    "locationLabel": "22-30 Longbridge Road, Barking, IG11 8RR",
    "websiteUrl": "https://www.nandos.co.uk/restaurants/barking",
    "solarMode": "facade",
    "status": "unavailable"
  },
  {
    "id": "restaurants-anuraag-tandoori-restaurant-way-328680340",
    "name": "Anuraag Tandoori Restaurant",
    "placeTypeId": "restaurant",
    "appId": "uk",
    "lat": 51.649199,
    "lon": -0.147725,
    "regionId": "london",
    "regionLabel": "Barnet",
    "locationLabel": "3 Station Parade, Cockfosters Road, Barnet, EN4 0DL",
    "websiteUrl": "https://www.anuraagtandoori.com",
    "solarMode": "facade",
    "status": "unavailable"
  },
  {
    "id": "restaurants-pizza-express-way-1036865907",
    "name": "Pizza Express",
    "placeTypeId": "restaurant",
    "appId": "uk",
    "lat": 51.658063,
    "lon": -0.200805,
    "regionId": "london",
    "regionLabel": "Barnet",
    "locationLabel": "242-248 High Street, Barnet, EN5 5TD",
    "websiteUrl": "https://www.pizzaexpress.com/barnet-high-street",
    "solarMode": "facade",
    "status": "unavailable",
    "foodTags": {
      "tags": [
        "pizza"
      ],
      "confidence": "confirmed"
    }
  },
  {
    "id": "restaurants-the-blue-olive-way-328680359",
    "name": "The Blue Olive",
    "placeTypeId": "restaurant",
    "appId": "uk",
    "lat": 51.648777,
    "lon": -0.147402,
    "regionId": "london",
    "regionLabel": "Barnet",
    "locationLabel": "11-12 Station Parade, Cockfosters Road, Barnet, EN4 0DL",
    "websiteUrl": "https://www.theblueoliverestaurant.com",
    "solarMode": "facade",
    "status": "unavailable"
  },
  {
    "id": "restaurants-viet-chefs-way-328682709",
    "name": "Viet Chefs",
    "placeTypeId": "restaurant",
    "appId": "uk",
    "lat": 51.648117,
    "lon": -0.146992,
    "regionId": "london",
    "regionLabel": "Barnet",
    "locationLabel": "24 Station Parade, Cockfosters Road, Barnet, EN4 0DW",
    "websiteUrl": "https://www.vietchefs.uk",
    "solarMode": "facade",
    "status": "unavailable"
  },
  {
    "id": "restaurants-amarone-way-120984264",
    "name": "Amarone",
    "placeTypeId": "restaurant",
    "appId": "uk",
    "lat": 51.382149,
    "lon": -2.362615,
    "regionId": "bath",
    "regionLabel": "Bath",
    "locationLabel": "Saw Close, Bath, BA1 1EU",
    "websiteUrl": "https://www.amaroneristorante.co.uk",
    "solarMode": "facade",
    "status": "unavailable",
    "wheelchairAccess": {
      "status": "limited",
      "confidence": "confirmed"
    }
  },
  {
    "id": "restaurants-antica-pulteney-bridge-way-373843907",
    "name": "Antica Pulteney Bridge",
    "placeTypeId": "restaurant",
    "appId": "uk",
    "lat": 51.383398,
    "lon": -2.357379,
    "regionId": "bath",
    "regionLabel": "Bath",
    "locationLabel": "5 Argyle Street, BA2 4BA",
    "websiteUrl": "https://www.anticabath.co.uk",
    "solarMode": "facade",
    "status": "unavailable",
    "wheelchairAccess": {
      "status": "limited",
      "confidence": "confirmed"
    }
  },
  {
    "id": "restaurants-apex-hotel-restaurant-node-5189006827",
    "name": "Apex Hotel Restaurant",
    "placeTypeId": "restaurant",
    "appId": "uk",
    "lat": 51.381722,
    "lon": -2.365444,
    "regionId": "bath",
    "regionLabel": "Bath",
    "locationLabel": "James Street West, BA1 2DA",
    "websiteUrl": "https://www.apexhotels.co.uk/apex-city-of-bath-hotel/dining",
    "solarMode": "facade",
    "status": "unavailable",
    "wheelchairAccess": {
      "status": "yes",
      "confidence": "confirmed"
    },
    "foodOffer": {
      "category": "gastropub",
      "confidence": "confirmed"
    }
  },
  {
    "id": "restaurants-banana-tree-way-503752998",
    "name": "Banana Tree",
    "placeTypeId": "restaurant",
    "appId": "uk",
    "lat": 51.384195,
    "lon": -2.361921,
    "regionId": "bath",
    "regionLabel": "Bath",
    "locationLabel": "15 Milsom Street, Bath, BA1 1DE",
    "websiteUrl": "https://bananatree.co.uk/restaurants/bath",
    "solarMode": "facade",
    "status": "unavailable",
    "outdoorArea": {
      "type": "outdoor-seating",
      "confidence": "confirmed"
    },
    "wheelchairAccess": {
      "status": "yes",
      "confidence": "confirmed"
    }
  },
  {
    "id": "restaurants-bandook-kitchen-node-4315460200",
    "name": "Bandook Kitchen",
    "placeTypeId": "restaurant",
    "appId": "uk",
    "lat": 51.384009,
    "lon": -2.360782,
    "regionId": "bath",
    "regionLabel": "Bath",
    "locationLabel": "3-7 Milsom Place, BA1 1BZ",
    "websiteUrl": "https://bandookkitchen.com",
    "solarMode": "facade",
    "status": "unavailable",
    "wheelchairAccess": {
      "status": "yes",
      "confidence": "confirmed"
    }
  },
  {
    "id": "restaurants-beckford-canteen-way-122110622",
    "name": "Beckford Canteen",
    "placeTypeId": "restaurant",
    "appId": "uk",
    "lat": 51.385359,
    "lon": -2.361591,
    "regionId": "bath",
    "regionLabel": "Bath",
    "locationLabel": "11-12 Bartlett Street, BA1 2QZ",
    "websiteUrl": "https://www.beckfordcanteen.com",
    "solarMode": "facade",
    "status": "unavailable",
    "wheelchairAccess": {
      "status": "yes",
      "confidence": "confirmed"
    }
  },
  {
    "id": "restaurants-bikanos-indian-cuisine-way-452871669",
    "name": "Bikano’s Indian Cuisine",
    "placeTypeId": "restaurant",
    "appId": "uk",
    "lat": 51.376616,
    "lon": -2.354069,
    "regionId": "bath",
    "regionLabel": "Bath",
    "locationLabel": "25 Claverton Street, BA2 4LD",
    "websiteUrl": "https://bikanos.co.uk",
    "solarMode": "facade",
    "status": "unavailable",
    "wheelchairAccess": {
      "status": "yes",
      "confidence": "confirmed"
    }
  },
  {
    "id": "restaurants-bills-way-373546294",
    "name": "Bill's",
    "placeTypeId": "restaurant",
    "appId": "uk",
    "lat": 51.381746,
    "lon": -2.359594,
    "regionId": "bath",
    "regionLabel": "Bath",
    "locationLabel": "7-8 Cheap Street, BA1 1NE",
    "websiteUrl": "https://bills-website.co.uk/restaurants/bath",
    "solarMode": "facade",
    "status": "unavailable",
    "wheelchairAccess": {
      "status": "yes",
      "confidence": "confirmed"
    }
  },
  {
    "id": "restaurants-boho-marche-node-4315546737",
    "name": "Boho Marché",
    "placeTypeId": "restaurant",
    "appId": "uk",
    "lat": 51.382947,
    "lon": -2.362935,
    "regionId": "bath",
    "regionLabel": "Bath",
    "locationLabel": "6 Queen Square, BA1 2HH",
    "websiteUrl": "https://bohomarche.com",
    "solarMode": "facade",
    "status": "unavailable",
    "wheelchairAccess": {
      "status": "limited",
      "confidence": "confirmed"
    }
  },
  {
    "id": "restaurants-bonghy-bo-node-4311167991",
    "name": "Bonghy-Bo",
    "placeTypeId": "restaurant",
    "appId": "uk",
    "lat": 51.382911,
    "lon": -2.35968,
    "regionId": "bath",
    "regionLabel": "Bath",
    "locationLabel": "2-3 Upper Borough Walls, Bath, BA1 1RZ",
    "websiteUrl": "https://www.bonghybo.com",
    "solarMode": "facade",
    "status": "unavailable"
  },
  {
    "id": "restaurants-bosco-pizzeria-way-122387056",
    "name": "Bosco Pizzeria",
    "placeTypeId": "restaurant",
    "appId": "uk",
    "lat": 51.384063,
    "lon": -2.360994,
    "regionId": "bath",
    "regionLabel": "Bath",
    "locationLabel": "1-2 Milsom Place, BA1 1BZ",
    "websiteUrl": "https://www.boscopizzeria.co.uk",
    "solarMode": "facade",
    "status": "unavailable",
    "wheelchairAccess": {
      "status": "limited",
      "confidence": "confirmed"
    }
  },
  {
    "id": "restaurants-chai-and-chutney-way-1458071139",
    "name": "Chai & Chutney",
    "placeTypeId": "restaurant",
    "appId": "uk",
    "lat": 51.379793,
    "lon": -2.394857,
    "regionId": "bath",
    "regionLabel": "Bath",
    "locationLabel": "107 High Street, BA2 1DB",
    "websiteUrl": "https://chai-n-chutney.com",
    "solarMode": "facade",
    "status": "unavailable"
  },
  {
    "id": "restaurants-charm-way-373703330",
    "name": "Charm",
    "placeTypeId": "restaurant",
    "appId": "uk",
    "lat": 51.384686,
    "lon": -2.362343,
    "regionId": "bath",
    "regionLabel": "Bath",
    "locationLabel": "2 George Street, BA1 2EH",
    "websiteUrl": "https://www.charmthaiuk.com",
    "solarMode": "facade",
    "status": "unavailable"
  },
  {
    "id": "restaurants-chez-dominique-way-373843900",
    "name": "Chez Dominique",
    "placeTypeId": "restaurant",
    "appId": "uk",
    "lat": 51.383092,
    "lon": -2.357314,
    "regionId": "bath",
    "regionLabel": "Bath",
    "locationLabel": "15 Argyle Street, BA2 4BQ",
    "websiteUrl": "https://www.chezdominique.co.uk",
    "solarMode": "facade",
    "status": "unavailable",
    "wheelchairAccess": {
      "status": "limited",
      "confidence": "confirmed"
    }
  },
  {
    "id": "restaurants-claverton-rooms-node-1014761128",
    "name": "Claverton Rooms",
    "placeTypeId": "restaurant",
    "appId": "uk",
    "lat": 51.379617,
    "lon": -2.329213,
    "regionId": "bath",
    "regionLabel": "Bath",
    "locationLabel": "2W, BA2 7BT",
    "websiteUrl": "https://www.bath.ac.uk/locations/claverton-rooms",
    "solarMode": "facade",
    "status": "unavailable",
    "wheelchairAccess": {
      "status": "yes",
      "confidence": "confirmed"
    }
  },
  {
    "id": "restaurants-claytons-kitchen-way-183474165",
    "name": "Clayton’s Kitchen",
    "placeTypeId": "restaurant",
    "appId": "uk",
    "lat": 51.384877,
    "lon": -2.362764,
    "regionId": "bath",
    "regionLabel": "Bath",
    "locationLabel": "15a George Street, BA1 2EN",
    "websiteUrl": "https://www.claytonskitchen.com",
    "solarMode": "facade",
    "status": "unavailable",
    "outdoorArea": {
      "type": "outdoor-seating",
      "confidence": "confirmed"
    },
    "wheelchairAccess": {
      "status": "limited",
      "confidence": "confirmed"
    }
  },
  {
    "id": "restaurants-colosseo-way-373703336",
    "name": "Colosseo",
    "placeTypeId": "restaurant",
    "appId": "uk",
    "lat": 51.384439,
    "lon": -2.361577,
    "regionId": "bath",
    "regionLabel": "Bath",
    "locationLabel": "30 Milsom Street, BA1 1DG",
    "websiteUrl": "https://colosseobath.co.uk",
    "solarMode": "facade",
    "status": "unavailable",
    "wheelchairAccess": {
      "status": "yes",
      "confidence": "confirmed"
    }
  },
  {
    "id": "restaurants-comptoir-libanais-way-465963990",
    "name": "Comptoir Libanais",
    "placeTypeId": "restaurant",
    "appId": "uk",
    "lat": 51.378261,
    "lon": -2.358538,
    "regionId": "bath",
    "regionLabel": "Bath",
    "locationLabel": "4 Newark Street, BA1 1AT",
    "websiteUrl": "https://www.comptoirlibanais.com/locations/bath",
    "solarMode": "facade",
    "status": "unavailable",
    "wheelchairAccess": {
      "status": "yes",
      "confidence": "confirmed"
    }
  },
  {
    "id": "restaurants-comptoir-cuisine-way-478357699",
    "name": "Comptoir+Cuisine",
    "placeTypeId": "restaurant",
    "appId": "uk",
    "lat": 51.384668,
    "lon": -2.362566,
    "regionId": "bath",
    "regionLabel": "Bath",
    "locationLabel": "5 George Street, BA1 2EJ",
    "websiteUrl": "https://www.comptoirpluscuisine.com",
    "solarMode": "facade",
    "status": "unavailable",
    "wheelchairAccess": {
      "status": "yes",
      "confidence": "confirmed"
    }
  },
  {
    "id": "restaurants-corkage-way-592857046",
    "name": "Corkage",
    "placeTypeId": "restaurant",
    "appId": "uk",
    "lat": 51.38274,
    "lon": -2.364322,
    "regionId": "bath",
    "regionLabel": "Bath",
    "locationLabel": "5 Chapel Row, BA1 1HN",
    "websiteUrl": "https://corkagebath.com/chapel-row",
    "solarMode": "facade",
    "status": "unavailable",
    "wheelchairAccess": {
      "status": "limited",
      "confidence": "confirmed"
    }
  },
  {
    "id": "restaurants-cosy-club-node-1590419321",
    "name": "Cosy Club",
    "placeTypeId": "restaurant",
    "appId": "uk",
    "lat": 51.378649,
    "lon": -2.358338,
    "regionId": "bath",
    "regionLabel": "Bath",
    "locationLabel": "Unit R4 SouthGate Place, BA1 1AP",
    "websiteUrl": "https://cosyclub.co.uk/location/bath",
    "solarMode": "facade",
    "status": "unavailable",
    "outdoorArea": {
      "type": "outdoor-seating",
      "confidence": "confirmed"
    },
    "wheelchairAccess": {
      "status": "yes",
      "confidence": "confirmed"
    }
  },
  {
    "id": "restaurants-cote-brasserie-node-4311952595",
    "name": "Côte Brasserie",
    "placeTypeId": "restaurant",
    "appId": "uk",
    "lat": 51.383805,
    "lon": -2.360581,
    "regionId": "bath",
    "regionLabel": "Bath",
    "locationLabel": "Milsom Place, BA1 1BZ",
    "websiteUrl": "https://www.cote.co.uk/restaurant/bath",
    "solarMode": "facade",
    "status": "unavailable",
    "wheelchairAccess": {
      "status": "limited",
      "confidence": "confirmed"
    }
  },
  {
    "id": "restaurants-crescent-way-472564321",
    "name": "Crescent",
    "placeTypeId": "restaurant",
    "appId": "uk",
    "lat": 51.386506,
    "lon": -2.365805,
    "regionId": "bath",
    "regionLabel": "Bath",
    "locationLabel": "2 Margaret's Buildings, BA1 2LP",
    "websiteUrl": "https://www.crescent-restaurant-bath.co.uk",
    "solarMode": "facade",
    "status": "unavailable",
    "outdoorArea": {
      "type": "outdoor-seating",
      "confidence": "confirmed"
    }
  },
  {
    "id": "restaurants-dough-node-9023464052",
    "name": "Dough",
    "placeTypeId": "restaurant",
    "appId": "uk",
    "lat": 51.381094,
    "lon": -2.363406,
    "regionId": "bath",
    "regionLabel": "Bath",
    "locationLabel": "9 Kingsmead Square, BA1 2AB",
    "websiteUrl": "https://www.doughpizzarestaurant.co.uk",
    "solarMode": "facade",
    "status": "unavailable",
    "foodTags": {
      "tags": [
        "pizza"
      ],
      "confidence": "confirmed"
    }
  },
  {
    "id": "restaurants-east-meets-west-way-594206001",
    "name": "East Meets West",
    "placeTypeId": "restaurant",
    "appId": "uk",
    "lat": 51.378247,
    "lon": -2.359979,
    "regionId": "bath",
    "regionLabel": "Bath",
    "locationLabel": "33 Southgate Street, BA1 1TP",
    "websiteUrl": "https://www.eastmeetswestbath.com",
    "solarMode": "facade",
    "status": "unavailable",
    "wheelchairAccess": {
      "status": "yes",
      "confidence": "confirmed"
    }
  },
  {
    "id": "restaurants-eat-a-pitta-way-373546325",
    "name": "Eat a Pitta",
    "placeTypeId": "restaurant",
    "appId": "uk",
    "lat": 51.381273,
    "lon": -2.362187,
    "regionId": "bath",
    "regionLabel": "Bath",
    "locationLabel": "19 Westgate Street, BA1 1EQ",
    "websiteUrl": "https://www.eatapitta.co.uk",
    "solarMode": "facade",
    "status": "unavailable"
  },
  {
    "id": "restaurants-edesia-way-122518012",
    "name": "Edesia",
    "placeTypeId": "restaurant",
    "appId": "uk",
    "lat": 51.381978,
    "lon": -2.359389,
    "regionId": "bath",
    "regionLabel": "Bath",
    "locationLabel": "13-14 High Street, BA1 5AQ",
    "websiteUrl": "https://edesiabath.co.uk",
    "solarMode": "facade",
    "status": "unavailable",
    "wheelchairAccess": {
      "status": "yes",
      "confidence": "confirmed"
    }
  },
  {
    "id": "restaurants-fountain-canteen-node-4300573369",
    "name": "Fountain Canteen",
    "placeTypeId": "restaurant",
    "appId": "uk",
    "lat": 51.379543,
    "lon": -2.328368,
    "regionId": "bath",
    "regionLabel": "Bath",
    "locationLabel": "2W, BA2 7BT",
    "websiteUrl": "https://www.bath.ac.uk/locations/fountain-canteen",
    "solarMode": "facade",
    "status": "unavailable",
    "wheelchairAccess": {
      "status": "yes",
      "confidence": "confirmed"
    }
  },
  {
    "id": "restaurants-franco-manca-node-2949155667",
    "name": "Franco Manca",
    "placeTypeId": "restaurant",
    "appId": "uk",
    "lat": 51.377476,
    "lon": -2.35756,
    "regionId": "bath",
    "regionLabel": "Bath",
    "locationLabel": "12 Brunel Square, BA1 1SX",
    "websiteUrl": "https://www.francomanca.co.uk/restaurants/bath",
    "solarMode": "facade",
    "status": "unavailable",
    "wheelchairAccess": {
      "status": "yes",
      "confidence": "confirmed"
    },
    "foodTags": {
      "tags": [
        "pizza"
      ],
      "confidence": "confirmed"
    }
  },
  {
    "id": "restaurants-giggling-squid-way-78320404",
    "name": "Giggling Squid",
    "placeTypeId": "restaurant",
    "appId": "uk",
    "lat": 51.382199,
    "lon": -2.361984,
    "regionId": "bath",
    "regionLabel": "Bath",
    "locationLabel": "Saw Close, BA1 1EY",
    "websiteUrl": "https://www.gigglingsquid.com/restaurant/bath",
    "solarMode": "facade",
    "status": "unavailable"
  },
  {
    "id": "restaurants-gourmet-burger-kitchen-node-2073362398",
    "name": "Gourmet Burger Kitchen",
    "placeTypeId": "restaurant",
    "appId": "uk",
    "lat": 51.377577,
    "lon": -2.357908,
    "regionId": "bath",
    "regionLabel": "Bath",
    "locationLabel": "8 Brunel Square, BA1 1SX",
    "websiteUrl": "https://www.slimchickens.co.uk/locations/bath",
    "solarMode": "facade",
    "status": "unavailable",
    "wheelchairAccess": {
      "status": "yes",
      "confidence": "confirmed"
    }
  },
  {
    "id": "restaurants-green-park-brasserie-and-bar-way-313550685",
    "name": "Green Park Brasserie & Bar",
    "placeTypeId": "restaurant",
    "appId": "uk",
    "lat": 51.381569,
    "lon": -2.36635,
    "regionId": "bath",
    "regionLabel": "Bath",
    "locationLabel": "Green Park Road, Bath, BA1 1JB",
    "websiteUrl": "https://www.greenparkbrasserie.com",
    "solarMode": "facade",
    "status": "unavailable",
    "wheelchairAccess": {
      "status": "yes",
      "confidence": "confirmed"
    }
  },
  {
    "id": "restaurants-heavenly-desserts-way-1102692037",
    "name": "Heavenly Desserts",
    "placeTypeId": "restaurant",
    "appId": "uk",
    "lat": 51.379813,
    "lon": -2.361,
    "regionId": "bath",
    "regionLabel": "Bath",
    "locationLabel": "7-9 Lower Borough Walls, BA1 1QR",
    "websiteUrl": "https://heavenlydesserts.co.uk",
    "solarMode": "facade",
    "status": "unavailable"
  },
  {
    "id": "restaurants-herd-node-3772707836",
    "name": "Herd",
    "placeTypeId": "restaurant",
    "appId": "uk",
    "lat": 51.383217,
    "lon": -2.357137,
    "regionId": "bath",
    "regionLabel": "Bath",
    "locationLabel": "12 Argyle Street, BA2 4BQ",
    "websiteUrl": "https://www.theherdrestaurant.co.uk",
    "solarMode": "facade",
    "status": "unavailable"
  },
  {
    "id": "restaurants-hondo-sushi-node-6365435885",
    "name": "Hondo Sushi",
    "placeTypeId": "restaurant",
    "appId": "uk",
    "lat": 51.379545,
    "lon": -2.361377,
    "regionId": "bath",
    "regionLabel": "Bath",
    "locationLabel": "9 St James Parade, BA1 1UL",
    "websiteUrl": "https://www.hondosushi.co.uk",
    "solarMode": "facade",
    "status": "unavailable"
  },
  {
    "id": "restaurants-jars-meze-way-691940147",
    "name": "Jars Meze",
    "placeTypeId": "restaurant",
    "appId": "uk",
    "lat": 51.382281,
    "lon": -2.359808,
    "regionId": "bath",
    "regionLabel": "Bath",
    "locationLabel": "6-7 Northumberland Place, Bath, BA1 5AR",
    "websiteUrl": "https://www.jarsmeze.com",
    "solarMode": "facade",
    "status": "unavailable",
    "wheelchairAccess": {
      "status": "yes",
      "confidence": "confirmed"
    }
  },
  {
    "id": "restaurants-joya-way-373843937",
    "name": "joya",
    "placeTypeId": "restaurant",
    "appId": "uk",
    "lat": 51.382458,
    "lon": -2.357996,
    "regionId": "bath",
    "regionLabel": "Bath",
    "locationLabel": "6, BA2 4AN",
    "websiteUrl": "https://www.joyarestaurant.co.uk",
    "solarMode": "facade",
    "status": "unavailable"
  },
  {
    "id": "restaurants-kokoro-way-380858321",
    "name": "Kokoro",
    "placeTypeId": "restaurant",
    "appId": "uk",
    "lat": 51.380564,
    "lon": -2.360282,
    "regionId": "bath",
    "regionLabel": "Bath",
    "locationLabel": "33 Stall Street, BA1 1QG",
    "websiteUrl": "https://kokorouk.com",
    "solarMode": "facade",
    "status": "unavailable"
  },
  {
    "id": "restaurants-la-terra-way-120543178",
    "name": "La Terra",
    "placeTypeId": "restaurant",
    "appId": "uk",
    "lat": 51.383374,
    "lon": -2.362075,
    "regionId": "bath",
    "regionLabel": "Bath",
    "locationLabel": "2 John Street, BA1 2JL",
    "websiteUrl": "https://www.laterra.co.uk",
    "solarMode": "facade",
    "status": "unavailable"
  },
  {
    "id": "restaurants-las-iguanas-way-592743796",
    "name": "Las Iguanas",
    "placeTypeId": "restaurant",
    "appId": "uk",
    "lat": 51.381673,
    "lon": -2.362891,
    "regionId": "bath",
    "regionLabel": "Bath",
    "locationLabel": "12 Seven Dials, BA1 1EN",
    "websiteUrl": "https://www.iguanas.co.uk/restaurants/bath",
    "solarMode": "facade",
    "status": "unavailable",
    "wheelchairAccess": {
      "status": "limited",
      "confidence": "confirmed"
    }
  },
  {
    "id": "restaurants-maaya-way-720560954",
    "name": "Maaya",
    "placeTypeId": "restaurant",
    "appId": "uk",
    "lat": 51.37971,
    "lon": -2.361192,
    "regionId": "bath",
    "regionLabel": "Bath",
    "locationLabel": "43 Saint James's Parade, BA1 1UQ",
    "websiteUrl": "https://maayaofbath.co.uk",
    "solarMode": "facade",
    "status": "unavailable",
    "wheelchairAccess": {
      "status": "yes",
      "confidence": "confirmed"
    }
  },
  {
    "id": "restaurants-magari-node-4851641621",
    "name": "Magari",
    "placeTypeId": "restaurant",
    "appId": "uk",
    "lat": 51.383916,
    "lon": -2.360729,
    "regionId": "bath",
    "regionLabel": "Bath",
    "locationLabel": "Unit 16 Milsom Place, BA1 1BZ",
    "websiteUrl": "https://magaripasta.co.uk",
    "solarMode": "facade",
    "status": "unavailable",
    "wheelchairAccess": {
      "status": "yes",
      "confidence": "confirmed"
    }
  },
  {
    "id": "restaurants-mantra-way-594364540",
    "name": "Mantra",
    "placeTypeId": "restaurant",
    "appId": "uk",
    "lat": 51.385335,
    "lon": -2.360395,
    "regionId": "bath",
    "regionLabel": "Bath",
    "locationLabel": "5, Bath, BA1 5LS",
    "websiteUrl": "https://mantraofbath.co.uk",
    "solarMode": "facade",
    "status": "unavailable",
    "wheelchairAccess": {
      "status": "limited",
      "confidence": "confirmed"
    }
  },
  {
    "id": "restaurants-montagus-mews-node-11837510669",
    "name": "Montagu's Mews",
    "placeTypeId": "restaurant",
    "appId": "uk",
    "lat": 51.387464,
    "lon": -2.368055,
    "regionId": "bath",
    "regionLabel": "Bath",
    "locationLabel": "BA1 2LS",
    "websiteUrl": "https://www.royalcrescent.co.uk/dining/montagu-s-mews",
    "solarMode": "facade",
    "status": "unavailable",
    "wheelchairAccess": {
      "status": "limited",
      "confidence": "confirmed"
    },
    "foodOffer": {
      "category": "gastropub",
      "confidence": "confirmed"
    }
  },
  {
    "id": "restaurants-nandos-node-1357032076",
    "name": "Nando's",
    "placeTypeId": "restaurant",
    "appId": "uk",
    "lat": 51.380771,
    "lon": -2.364612,
    "regionId": "bath",
    "regionLabel": "Bath",
    "locationLabel": "BA1 2BX",
    "websiteUrl": "https://www.nandos.co.uk/restaurants/bath",
    "solarMode": "facade",
    "status": "unavailable",
    "wheelchairAccess": {
      "status": "yes",
      "confidence": "confirmed"
    }
  },
  {
    "id": "restaurants-nandos-node-2073364024",
    "name": "Nando's",
    "placeTypeId": "restaurant",
    "appId": "uk",
    "lat": 51.377574,
    "lon": -2.358238,
    "regionId": "bath",
    "regionLabel": "Bath",
    "locationLabel": "4-5 Brunel Square, BA1 1SX",
    "websiteUrl": "https://www.nandos.co.uk/restaurants/bath-vaults",
    "solarMode": "facade",
    "status": "unavailable",
    "wheelchairAccess": {
      "status": "yes",
      "confidence": "confirmed"
    }
  },
  {
    "id": "restaurants-noyas-kitchen-way-591089544",
    "name": "Noya’s Kitchen",
    "placeTypeId": "restaurant",
    "appId": "uk",
    "lat": 51.37959,
    "lon": -2.361427,
    "regionId": "bath",
    "regionLabel": "Bath",
    "locationLabel": "7 St James Parade, BA1 1UL",
    "websiteUrl": "https://www.noyaskitchen.co.uk",
    "solarMode": "facade",
    "status": "unavailable"
  },
  {
    "id": "restaurants-oak-way-55466892",
    "name": "Oak",
    "placeTypeId": "restaurant",
    "appId": "uk",
    "lat": 51.380744,
    "lon": -2.358527,
    "regionId": "bath",
    "regionLabel": "Bath",
    "locationLabel": "2 North Parade Passage, Bath, BA1 1NX",
    "websiteUrl": "https://www.oakrestaurant.co.uk",
    "solarMode": "facade",
    "status": "unavailable"
  },
  {
    "id": "restaurants-ole-tapas-node-4316939800",
    "name": "Olé Tapas",
    "placeTypeId": "restaurant",
    "appId": "uk",
    "lat": 51.38334,
    "lon": -2.362099,
    "regionId": "bath",
    "regionLabel": "Bath",
    "locationLabel": "1 John Street, Bath, BA1 2JL",
    "websiteUrl": "https://www.oletapas.co.uk",
    "solarMode": "facade",
    "status": "unavailable"
  },
  {
    "id": "restaurants-olive-tree-restaurant-node-4342672164",
    "name": "Olive Tree Restaurant",
    "placeTypeId": "restaurant",
    "appId": "uk",
    "lat": 51.387065,
    "lon": -2.363133,
    "regionId": "bath",
    "regionLabel": "Bath",
    "locationLabel": "Russell Street, BA1 2QF",
    "websiteUrl": "https://olivetreebath.co.uk",
    "solarMode": "facade",
    "status": "unavailable"
  },
  {
    "id": "restaurants-opa-way-432543032",
    "name": "Opa",
    "placeTypeId": "restaurant",
    "appId": "uk",
    "lat": 51.380675,
    "lon": -2.355573,
    "regionId": "bath",
    "regionLabel": "Bath",
    "locationLabel": "North Parade, Bath, BA2 4AJ",
    "websiteUrl": "https://www.opabath.com",
    "solarMode": "facade",
    "status": "unavailable"
  },
  {
    "id": "restaurants-peking-restaurant-node-3132224892",
    "name": "Peking Restaurant",
    "placeTypeId": "restaurant",
    "appId": "uk",
    "lat": 51.381295,
    "lon": -2.363576,
    "regionId": "bath",
    "regionLabel": "Bath",
    "locationLabel": "New Street, BA1 2AF",
    "websiteUrl": "https://pekingrestaurantbath.co.uk",
    "solarMode": "facade",
    "status": "unavailable",
    "wheelchairAccess": {
      "status": "limited",
      "confidence": "confirmed"
    }
  },
  {
    "id": "restaurants-pintxo-way-490745006",
    "name": "Pintxo",
    "placeTypeId": "restaurant",
    "appId": "uk",
    "lat": 51.382625,
    "lon": -2.362812,
    "regionId": "bath",
    "regionLabel": "Bath",
    "locationLabel": "31 Barton Street, Bath, BA1 1HG",
    "websiteUrl": "https://pintxo.co.uk",
    "solarMode": "facade",
    "status": "unavailable",
    "outdoorArea": {
      "type": "outdoor-seating",
      "confidence": "confirmed"
    },
    "wheelchairAccess": {
      "status": "limited",
      "confidence": "confirmed"
    }
  },
  {
    "id": "restaurants-pizzaexpress-way-55380664",
    "name": "PizzaExpress",
    "placeTypeId": "restaurant",
    "appId": "uk",
    "lat": 51.378722,
    "lon": -2.358986,
    "regionId": "bath",
    "regionLabel": "Bath",
    "locationLabel": "BA1 1AP",
    "websiteUrl": "https://www.pizzaexpress.com/bath-southgate-shopping-centre",
    "solarMode": "facade",
    "status": "unavailable",
    "wheelchairAccess": {
      "status": "yes",
      "confidence": "confirmed"
    },
    "foodTags": {
      "tags": [
        "pizza"
      ],
      "confidence": "confirmed"
    }
  },
  {
    "id": "restaurants-pizzaexpress-way-120987501",
    "name": "PizzaExpress",
    "placeTypeId": "restaurant",
    "appId": "uk",
    "lat": 51.382256,
    "lon": -2.362668,
    "regionId": "bath",
    "regionLabel": "Bath",
    "locationLabel": "1 Barton Street, BA1 1HQ",
    "websiteUrl": "https://www.pizzaexpress.com/bath-theatre-royal",
    "solarMode": "facade",
    "status": "unavailable",
    "wheelchairAccess": {
      "status": "limited",
      "confidence": "confirmed"
    },
    "foodTags": {
      "tags": [
        "pizza"
      ],
      "confidence": "confirmed"
    }
  },
  {
    "id": "restaurants-plate-node-8988654759",
    "name": "Plate",
    "placeTypeId": "restaurant",
    "appId": "uk",
    "lat": 51.383508,
    "lon": -2.351955,
    "regionId": "bath",
    "regionLabel": "Bath",
    "locationLabel": "18-19 Pulteney Road, BA2 4EZ",
    "websiteUrl": "https://www.thebirdbath.co.uk/food-drink/plate",
    "solarMode": "facade",
    "status": "unavailable",
    "foodOffer": {
      "category": "gastropub",
      "confidence": "confirmed"
    }
  },
  {
    "id": "restaurants-ponte-vecchio-way-124414495",
    "name": "Ponte Vecchio",
    "placeTypeId": "restaurant",
    "appId": "uk",
    "lat": 51.383,
    "lon": -2.356584,
    "regionId": "bath",
    "regionLabel": "Bath",
    "locationLabel": "Spring Gardens Road, BA2 6PW",
    "websiteUrl": "https://www.pontevecchiobath.com",
    "solarMode": "facade",
    "status": "unavailable",
    "outdoorArea": {
      "type": "outdoor-seating",
      "confidence": "confirmed"
    },
    "wheelchairAccess": {
      "status": "limited",
      "confidence": "confirmed"
    }
  },
  {
    "id": "restaurants-portofino-way-380822178",
    "name": "Portofino",
    "placeTypeId": "restaurant",
    "appId": "uk",
    "lat": 51.382298,
    "lon": -2.3594,
    "regionId": "bath",
    "regionLabel": "Bath",
    "locationLabel": "20 High Street, BA1 5AJ",
    "websiteUrl": "https://www.portofinobath.co.uk",
    "solarMode": "facade",
    "status": "unavailable"
  },
  {
    "id": "restaurants-prezzo-node-3132211105",
    "name": "Prezzo",
    "placeTypeId": "restaurant",
    "appId": "uk",
    "lat": 51.377575,
    "lon": -2.358072,
    "regionId": "bath",
    "regionLabel": "Bath",
    "locationLabel": "6-7 Brunel Square, BA1 1SX",
    "websiteUrl": "https://www.prezzo.co.uk/restaurants/bath",
    "solarMode": "facade",
    "status": "unavailable",
    "wheelchairAccess": {
      "status": "yes",
      "confidence": "confirmed"
    }
  },
  {
    "id": "restaurants-raphael-way-197917654",
    "name": "Raphael",
    "placeTypeId": "restaurant",
    "appId": "uk",
    "lat": 51.382355,
    "lon": -2.362045,
    "regionId": "bath",
    "regionLabel": "Bath",
    "locationLabel": "Upper Borough Walls, BA1 1RN",
    "websiteUrl": "https://www.raphaelrestaurant.co.uk",
    "solarMode": "facade",
    "status": "unavailable",
    "wheelchairAccess": {
      "status": "limited",
      "confidence": "confirmed"
    }
  },
  {
    "id": "restaurants-robun-way-594364545",
    "name": "Robun",
    "placeTypeId": "restaurant",
    "appId": "uk",
    "lat": 51.385276,
    "lon": -2.361228,
    "regionId": "bath",
    "regionLabel": "Bath",
    "locationLabel": "4a George Street, BA1 2ED",
    "websiteUrl": "https://www.robun.co.uk",
    "solarMode": "facade",
    "status": "unavailable"
  },
  {
    "id": "restaurants-root-bath-way-122386868",
    "name": "Root Bath",
    "placeTypeId": "restaurant",
    "appId": "uk",
    "lat": 51.383734,
    "lon": -2.360918,
    "regionId": "bath",
    "regionLabel": "Bath",
    "locationLabel": "BA1 1BZ",
    "websiteUrl": "https://www.rootrestaurants.co.uk/bath",
    "solarMode": "facade",
    "status": "unavailable",
    "wheelchairAccess": {
      "status": "yes",
      "confidence": "confirmed"
    }
  },
  {
    "id": "restaurants-root-spice-node-4838161918",
    "name": "Root Spice",
    "placeTypeId": "restaurant",
    "appId": "uk",
    "lat": 51.383118,
    "lon": -2.357383,
    "regionId": "bath",
    "regionLabel": "Bath",
    "locationLabel": "15 Argyle Street, Bath, BA2 4BQ",
    "websiteUrl": "https://rootspice.co.uk",
    "solarMode": "facade",
    "status": "unavailable",
    "wheelchairAccess": {
      "status": "limited",
      "confidence": "confirmed"
    }
  },
  {
    "id": "restaurants-rosas-thai-cafe-node-13048900940",
    "name": "Rosa's Thai Cafe",
    "placeTypeId": "restaurant",
    "appId": "uk",
    "lat": 51.381684,
    "lon": -2.359844,
    "regionId": "bath",
    "regionLabel": "Bath",
    "locationLabel": "4 Cheap Street, BA1 1NE",
    "websiteUrl": "https://rosasthai.com/locations/rosas-thai-restaurant-delivery-takeaway-bath",
    "solarMode": "facade",
    "status": "unavailable",
    "outdoorArea": {
      "type": "outdoor-seating",
      "confidence": "confirmed"
    },
    "wheelchairAccess": {
      "status": "yes",
      "confidence": "confirmed"
    }
  },
  {
    "id": "restaurants-salathai-way-373343733",
    "name": "Salathai",
    "placeTypeId": "restaurant",
    "appId": "uk",
    "lat": 51.380459,
    "lon": -2.357354,
    "regionId": "bath",
    "regionLabel": "Bath",
    "locationLabel": "14 Pierrepont Street, Bath, BA1 1LA",
    "websiteUrl": "https://www.salathai-bath.co.uk",
    "solarMode": "facade",
    "status": "unavailable"
  },
  {
    "id": "restaurants-sally-lunns-way-55466905",
    "name": "Sally Lunn's",
    "placeTypeId": "restaurant",
    "appId": "uk",
    "lat": 51.380759,
    "lon": -2.358289,
    "regionId": "bath",
    "regionLabel": "Bath",
    "locationLabel": "4 North Parade Passage, BA1 1NX",
    "websiteUrl": "https://www.sallylunns.co.uk",
    "instagramUrl": "https://instagram.com/sallylunnsbath",
    "solarMode": "facade",
    "status": "unavailable"
  },
  {
    "id": "restaurants-sanremo-way-122518011",
    "name": "Sanremo",
    "placeTypeId": "restaurant",
    "appId": "uk",
    "lat": 51.382089,
    "lon": -2.3594,
    "regionId": "bath",
    "regionLabel": "Bath",
    "locationLabel": "15-17 High Street, BA1 5AH",
    "websiteUrl": "https://sanremobath.co.uk",
    "solarMode": "facade",
    "status": "unavailable",
    "wheelchairAccess": {
      "status": "yes",
      "confidence": "confirmed"
    }
  },
  {
    "id": "restaurants-sarthi-way-121676198",
    "name": "Sarthi",
    "placeTypeId": "restaurant",
    "appId": "uk",
    "lat": 51.386179,
    "lon": -2.359387,
    "regionId": "bath",
    "regionLabel": "Bath",
    "locationLabel": "88 Walcot Street, BA1 5BD",
    "websiteUrl": "https://sarthi.co.uk",
    "solarMode": "facade",
    "status": "unavailable",
    "wheelchairAccess": {
      "status": "yes",
      "confidence": "confirmed"
    }
  },
  {
    "id": "restaurants-solina-way-60004419",
    "name": "Solina",
    "placeTypeId": "restaurant",
    "appId": "uk",
    "lat": 51.382339,
    "lon": -2.357804,
    "regionId": "bath",
    "regionLabel": "Bath",
    "locationLabel": "Newmarket Row, BA2 4DF",
    "websiteUrl": "https://www.solinapasta.com",
    "solarMode": "facade",
    "status": "unavailable"
  },
  {
    "id": "restaurants-sotto-sotto-node-3772707844",
    "name": "Sotto Sotto",
    "placeTypeId": "restaurant",
    "appId": "uk",
    "lat": 51.380692,
    "lon": -2.356567,
    "regionId": "bath",
    "regionLabel": "Bath",
    "locationLabel": "10 North Parade, Bath, BA2 4AL",
    "websiteUrl": "https://sottosotto.co.uk",
    "solarMode": "facade",
    "status": "unavailable"
  },
  {
    "id": "restaurants-square-grill-restaurant-way-373343731",
    "name": "Square Grill Restaurant",
    "placeTypeId": "restaurant",
    "appId": "uk",
    "lat": 51.381513,
    "lon": -2.359807,
    "regionId": "bath",
    "regionLabel": "Bath",
    "locationLabel": "11-12 Abbey Churchyard, Bath, BA1 1LY",
    "websiteUrl": "https://squaregrillbath.co.uk",
    "solarMode": "facade",
    "status": "unavailable",
    "outdoorArea": {
      "type": "outdoor-seating",
      "confidence": "confirmed"
    },
    "wheelchairAccess": {
      "status": "yes",
      "confidence": "confirmed"
    }
  },
  {
    "id": "restaurants-susmitas-way-673318955",
    "name": "Susmita's",
    "placeTypeId": "restaurant",
    "appId": "uk",
    "lat": 51.379849,
    "lon": -2.371576,
    "regionId": "bath",
    "regionLabel": "Bath",
    "locationLabel": "85 Lower Bristol Road, Bath, BA2 3BQ",
    "websiteUrl": "https://susmitas.uk",
    "solarMode": "facade",
    "status": "unavailable"
  },
  {
    "id": "restaurants-tagine-zhor-way-373343734",
    "name": "Tagine Zhor",
    "placeTypeId": "restaurant",
    "appId": "uk",
    "lat": 51.380612,
    "lon": -2.358027,
    "regionId": "bath",
    "regionLabel": "Bath",
    "locationLabel": "1a North Parade Buildings, BA1 1LF",
    "websiteUrl": "https://www.taginezhor.co.uk",
    "solarMode": "facade",
    "status": "unavailable"
  },
  {
    "id": "restaurants-thai-weir-node-4940486078",
    "name": "Thai Weir",
    "placeTypeId": "restaurant",
    "appId": "uk",
    "lat": 51.382999,
    "lon": -2.357438,
    "regionId": "bath",
    "regionLabel": "Bath",
    "locationLabel": "17 Argyle Street, BA2 4BQ",
    "websiteUrl": "https://www.thaiweir.co.uk",
    "solarMode": "facade",
    "status": "unavailable"
  },
  {
    "id": "restaurants-thaikhun-way-465963988",
    "name": "Thaikhun",
    "placeTypeId": "restaurant",
    "appId": "uk",
    "lat": 51.378369,
    "lon": -2.358542,
    "regionId": "bath",
    "regionLabel": "Bath",
    "locationLabel": "Newark Street, BA1 1AT",
    "websiteUrl": "https://www.thaikhun.co.uk/thai-restaurant/bath",
    "solarMode": "facade",
    "status": "unavailable",
    "wheelchairAccess": {
      "status": "yes",
      "confidence": "confirmed"
    }
  },
  {
    "id": "restaurants-the-architect-node-334822741",
    "name": "The Architect",
    "placeTypeId": "restaurant",
    "appId": "uk",
    "lat": 51.382077,
    "lon": -2.357768,
    "regionId": "bath",
    "regionLabel": "Bath",
    "locationLabel": "Orange Grove, Bath, BA1 1LP",
    "websiteUrl": "https://www.brunningandprice.co.uk/architectbath/homepage",
    "solarMode": "facade",
    "status": "unavailable"
  },
  {
    "id": "restaurants-the-bath-townhouse-way-474927595",
    "name": "The Bath Townhouse",
    "placeTypeId": "restaurant",
    "appId": "uk",
    "lat": 51.38311,
    "lon": -2.361371,
    "regionId": "bath",
    "regionLabel": "Bath",
    "locationLabel": "18-19 Old Bond Street, BA1 1BP",
    "websiteUrl": "https://www.coppaclub.co.uk/the-bath-townhouse",
    "solarMode": "facade",
    "status": "unavailable"
  },
  {
    "id": "restaurants-the-bathwick-boatman-way-118037725",
    "name": "The Bathwick Boatman",
    "placeTypeId": "restaurant",
    "appId": "uk",
    "lat": 51.390396,
    "lon": -2.350163,
    "regionId": "bath",
    "regionLabel": "Bath",
    "locationLabel": "BA2 6QE",
    "websiteUrl": "https://bathwickboatman.com",
    "solarMode": "facade",
    "status": "unavailable",
    "wheelchairAccess": {
      "status": "yes",
      "confidence": "confirmed"
    }
  },
  {
    "id": "restaurants-the-beefy-boys-way-302757197",
    "name": "The Beefy Boys",
    "placeTypeId": "restaurant",
    "appId": "uk",
    "lat": 51.384837,
    "lon": -2.361691,
    "regionId": "bath",
    "regionLabel": "Bath",
    "locationLabel": "24 Milsom Street, BA1 1DG",
    "websiteUrl": "https://thebeefyboys.com",
    "solarMode": "facade",
    "status": "unavailable"
  },
  {
    "id": "restaurants-the-botanist-way-122106489",
    "name": "The Botanist",
    "placeTypeId": "restaurant",
    "appId": "uk",
    "lat": 51.383578,
    "lon": -2.360883,
    "regionId": "bath",
    "regionLabel": "Bath",
    "locationLabel": "46a Milsom Place, BA1 1BZ",
    "websiteUrl": "https://thebotanist.uk.com/locations/bath",
    "solarMode": "facade",
    "status": "unavailable",
    "wheelchairAccess": {
      "status": "limited",
      "confidence": "confirmed"
    }
  },
  {
    "id": "restaurants-the-circus-restaurant-way-120948596",
    "name": "The Circus Restaurant",
    "placeTypeId": "restaurant",
    "appId": "uk",
    "lat": 51.386251,
    "lon": -2.364965,
    "regionId": "bath",
    "regionLabel": "Bath",
    "locationLabel": "34 Brock Street, Bath, BA1 2LN",
    "websiteUrl": "https://www.thecircusrestaurant.co.uk",
    "solarMode": "facade",
    "status": "unavailable",
    "wheelchairAccess": {
      "status": "yes",
      "confidence": "confirmed"
    }
  },
  {
    "id": "restaurants-the-coconut-tree-way-456121855",
    "name": "The Coconut Tree",
    "placeTypeId": "restaurant",
    "appId": "uk",
    "lat": 51.384145,
    "lon": -2.360114,
    "regionId": "bath",
    "regionLabel": "Bath",
    "locationLabel": "36 Broad Street, Bath, BA1 5LP",
    "websiteUrl": "https://www.thecoconut-tree.com/bath",
    "solarMode": "facade",
    "status": "unavailable"
  },
  {
    "id": "restaurants-the-diner-node-5362360306",
    "name": "The Diner",
    "placeTypeId": "restaurant",
    "appId": "uk",
    "lat": 51.381566,
    "lon": -2.354621,
    "regionId": "bath",
    "regionLabel": "Bath",
    "locationLabel": "BA2 4ET",
    "websiteUrl": "https://www.better.org.uk/leisure-centre/banes/bath-sports-and-leisure-centre",
    "solarMode": "facade",
    "status": "unavailable"
  },
  {
    "id": "restaurants-the-elder-node-8016383597",
    "name": "The Elder",
    "placeTypeId": "restaurant",
    "appId": "uk",
    "lat": 51.380162,
    "lon": -2.356712,
    "regionId": "bath",
    "regionLabel": "Bath",
    "locationLabel": "2-8 South Parade, Bath, BA2 4AA",
    "websiteUrl": "https://www.theelder.co.uk",
    "solarMode": "facade",
    "status": "unavailable"
  },
  {
    "id": "restaurants-the-fat-pizza-way-592193923",
    "name": "The Fat Pizza",
    "placeTypeId": "restaurant",
    "appId": "uk",
    "lat": 51.382485,
    "lon": -2.365282,
    "regionId": "bath",
    "regionLabel": "Bath",
    "locationLabel": "28 Charles Street, BA1 1HU",
    "websiteUrl": "https://order.thefatpizza.co.uk/menu/bath",
    "solarMode": "facade",
    "status": "unavailable",
    "foodOffer": {
      "category": "gastropub",
      "confidence": "confirmed"
    },
    "foodTags": {
      "tags": [
        "pizza"
      ],
      "confidence": "confirmed"
    }
  },
  {
    "id": "restaurants-the-george-way-510450813",
    "name": "The George",
    "placeTypeId": "restaurant",
    "appId": "uk",
    "lat": 51.385167,
    "lon": -2.361697,
    "regionId": "bath",
    "regionLabel": "Bath",
    "locationLabel": "9 George Street, BA1 2EE",
    "websiteUrl": "https://www.thegeorgebath.com",
    "solarMode": "facade",
    "status": "unavailable"
  },
  {
    "id": "restaurants-the-ivy-way-373703323",
    "name": "The Ivy",
    "placeTypeId": "restaurant",
    "appId": "uk",
    "lat": 51.38388,
    "lon": -2.361292,
    "regionId": "bath",
    "regionLabel": "Bath",
    "locationLabel": "39 Milsom Street, BA1 1DN",
    "websiteUrl": "https://theivybathbrasserie.com",
    "solarMode": "facade",
    "status": "unavailable",
    "wheelchairAccess": {
      "status": "yes",
      "confidence": "confirmed"
    }
  },
  {
    "id": "restaurants-the-pearl-of-india-way-490724320",
    "name": "The Pearl of India",
    "placeTypeId": "restaurant",
    "appId": "uk",
    "lat": 51.383132,
    "lon": -2.361622,
    "regionId": "bath",
    "regionLabel": "Bath",
    "locationLabel": "8a Quiet Street, BA1 2JS",
    "websiteUrl": "https://pearlofindia.co.uk",
    "solarMode": "facade",
    "status": "unavailable"
  },
  {
    "id": "restaurants-the-pump-room-resaurant-node-2697486462",
    "name": "The Pump Room Resaurant",
    "placeTypeId": "restaurant",
    "appId": "uk",
    "lat": 51.381124,
    "lon": -2.360122,
    "regionId": "bath",
    "regionLabel": "Bath",
    "locationLabel": "Stall Street, Bath, BA1 1LZ",
    "websiteUrl": "https://www.romanbaths.co.uk/pump-room-restaurant",
    "instagramUrl": "https://instagram.com/thepumproomrestaurant",
    "solarMode": "facade",
    "status": "unavailable",
    "wheelchairAccess": {
      "status": "yes",
      "confidence": "confirmed"
    }
  },
  {
    "id": "restaurants-the-real-italian-pizza-co-way-176951154",
    "name": "The Real Italian Pizza Co.",
    "placeTypeId": "restaurant",
    "appId": "uk",
    "lat": 51.381067,
    "lon": -2.35815,
    "regionId": "bath",
    "regionLabel": "Bath",
    "locationLabel": "16 York Street, Bath, BA1 1NG",
    "websiteUrl": "https://www.realitalianpizza.co.uk",
    "solarMode": "facade",
    "status": "unavailable",
    "foodTags": {
      "tags": [
        "pizza"
      ],
      "confidence": "confirmed"
    }
  },
  {
    "id": "restaurants-the-scallop-shell-way-431372811",
    "name": "The Scallop Shell",
    "placeTypeId": "restaurant",
    "appId": "uk",
    "lat": 51.382895,
    "lon": -2.365787,
    "regionId": "bath",
    "regionLabel": "Bath",
    "locationLabel": "22 Monmouth Place, BA1 2AY",
    "websiteUrl": "https://www.thescallopshell.co.uk",
    "solarMode": "facade",
    "status": "unavailable",
    "wheelchairAccess": {
      "status": "yes",
      "confidence": "confirmed"
    }
  },
  {
    "id": "restaurants-the-sepoy-club-way-92222990",
    "name": "The Sepoy Club",
    "placeTypeId": "restaurant",
    "appId": "uk",
    "lat": 51.384843,
    "lon": -2.360753,
    "regionId": "bath",
    "regionLabel": "Bath",
    "locationLabel": "1 Broad Street, BA1 2EB",
    "websiteUrl": "https://www.thesepoyclub.co.uk",
    "solarMode": "facade",
    "status": "unavailable",
    "wheelchairAccess": {
      "status": "limited",
      "confidence": "confirmed"
    }
  },
  {
    "id": "restaurants-the-velo-lounge-way-164652039",
    "name": "The Velo Lounge",
    "placeTypeId": "restaurant",
    "appId": "uk",
    "lat": 51.377488,
    "lon": -2.378897,
    "regionId": "bath",
    "regionLabel": "Bath",
    "locationLabel": "30-31 Moorland Road, BA2 3PW",
    "websiteUrl": "https://thelounges.co.uk/velo",
    "solarMode": "facade",
    "status": "unavailable",
    "wheelchairAccess": {
      "status": "yes",
      "confidence": "confirmed"
    }
  },
  {
    "id": "restaurants-wagamama-way-92223554",
    "name": "Wagamama",
    "placeTypeId": "restaurant",
    "appId": "uk",
    "lat": 51.384982,
    "lon": -2.360814,
    "regionId": "bath",
    "regionLabel": "Bath",
    "locationLabel": "1 George Street, Bath, BA1 2EB",
    "websiteUrl": "https://www.wagamama.com/restaurants/bath/bath",
    "solarMode": "facade",
    "status": "unavailable",
    "wheelchairAccess": {
      "status": "yes",
      "confidence": "confirmed"
    }
  },
  {
    "id": "restaurants-wilks-way-488920416",
    "name": "Wilks",
    "placeTypeId": "restaurant",
    "appId": "uk",
    "lat": 51.385226,
    "lon": -2.388966,
    "regionId": "bath",
    "regionLabel": "Bath",
    "locationLabel": "13 Chelsea Road, BA1 3DU",
    "websiteUrl": "https://wilksbath.com",
    "solarMode": "facade",
    "status": "unavailable"
  },
  {
    "id": "restaurants-woods-restaurant-node-4307209792",
    "name": "Woods Restaurant",
    "placeTypeId": "restaurant",
    "appId": "uk",
    "lat": 51.385833,
    "lon": -2.362246,
    "regionId": "bath",
    "regionLabel": "Bath",
    "locationLabel": "9-13 Alfred Street, BA1 2QX",
    "websiteUrl": "https://www.woodsrestaurant.com",
    "solarMode": "facade",
    "status": "unavailable"
  },
  {
    "id": "restaurants-yak-yeti-yak-node-347635187",
    "name": "Yak Yeti Yak",
    "placeTypeId": "restaurant",
    "appId": "uk",
    "lat": 51.380302,
    "lon": -2.35731,
    "regionId": "bath",
    "regionLabel": "Bath",
    "locationLabel": "12 Pierrepont Street, Bath, BA1 1LA",
    "websiteUrl": "https://www.yakyetiyak.co.uk",
    "instagramUrl": "https://instagram.com/yakyetiyakbath",
    "solarMode": "facade",
    "status": "unavailable"
  },
  {
    "id": "restaurants-yum-yum-thai-way-591679833",
    "name": "Yum Yum Thai",
    "placeTypeId": "restaurant",
    "appId": "uk",
    "lat": 51.381505,
    "lon": -2.363143,
    "regionId": "bath",
    "regionLabel": "Bath",
    "locationLabel": "17 Kingsmead Square, BA1 2AE",
    "websiteUrl": "https://www.yumyumthaibath.com",
    "solarMode": "facade",
    "status": "unavailable",
    "wheelchairAccess": {
      "status": "limited",
      "confidence": "confirmed"
    }
  },
  {
    "id": "restaurants-zizzi-way-545038379",
    "name": "Zizzi",
    "placeTypeId": "restaurant",
    "appId": "uk",
    "lat": 51.382041,
    "lon": -2.361921,
    "regionId": "bath",
    "regionLabel": "Bath",
    "locationLabel": "9 Saw Close, BA1 1EY",
    "websiteUrl": "https://www.zizzi.co.uk/italian/restaurants/bath",
    "solarMode": "facade",
    "status": "unavailable"
  },
  {
    "id": "restaurants-ask-italian-node-1769508069",
    "name": "ASK Italian",
    "placeTypeId": "restaurant",
    "appId": "uk",
    "lat": 51.408631,
    "lon": -0.024749,
    "regionId": "london",
    "regionLabel": "Beckenham",
    "locationLabel": "2 Bromley Road, Beckenham, BR3 5JE",
    "websiteUrl": "https://www.askitalian.co.uk/italian/restaurants/beckenham",
    "solarMode": "facade",
    "status": "unavailable"
  },
  {
    "id": "restaurants-branded-node-381665284",
    "name": "Branded",
    "placeTypeId": "restaurant",
    "appId": "uk",
    "lat": 51.408075,
    "lon": -0.025107,
    "regionId": "london",
    "regionLabel": "Beckenham",
    "locationLabel": "49-51 High Street, Beckenham, BR3 1AW",
    "websiteUrl": "https://brandedsteaks.co.uk",
    "solarMode": "facade",
    "status": "unavailable"
  },
  {
    "id": "restaurants-el-molino-node-13444940745",
    "name": "El Molino",
    "placeTypeId": "restaurant",
    "appId": "uk",
    "lat": 51.409851,
    "lon": -0.04555,
    "regionId": "london",
    "regionLabel": "Beckenham",
    "locationLabel": "251 Beckenham Road, Beckenham, BR3 4RP",
    "websiteUrl": "https://www.elmolino.co.uk",
    "solarMode": "facade",
    "status": "unavailable"
  },
  {
    "id": "restaurants-ember-node-308064682",
    "name": "Ember",
    "placeTypeId": "restaurant",
    "appId": "uk",
    "lat": 51.398917,
    "lon": -0.041254,
    "regionId": "london",
    "regionLabel": "Beckenham",
    "locationLabel": "145-147 Croydon Road, Beckenham, BR3 3RB",
    "websiteUrl": "https://www.embersteakhouse.co.uk",
    "instagramUrl": "https://instagram.com/embersteakhousebeckenham",
    "solarMode": "facade",
    "status": "unavailable"
  },
  {
    "id": "restaurants-hisar-node-13684700228",
    "name": "Hisar",
    "placeTypeId": "restaurant",
    "appId": "uk",
    "lat": 51.406722,
    "lon": -0.032137,
    "regionId": "london",
    "regionLabel": "Beckenham",
    "locationLabel": "251 High Street, Beckenham, BR3 1BN",
    "websiteUrl": "https://www.hisarbeckenham.co.uk",
    "solarMode": "facade",
    "status": "unavailable"
  },
  {
    "id": "restaurants-jams-on-the-hill-node-6090921585",
    "name": "Jams on the Hill",
    "placeTypeId": "restaurant",
    "appId": "uk",
    "lat": 51.40827,
    "lon": -0.025384,
    "regionId": "london",
    "regionLabel": "Beckenham",
    "locationLabel": "82 High Street, Beckenham, BR3 1ED",
    "websiteUrl": "https://jamsbeckenham.co.uk",
    "solarMode": "facade",
    "status": "unavailable",
    "outdoorArea": {
      "type": "outdoor-seating",
      "confidence": "confirmed"
    }
  },
  {
    "id": "restaurants-love-a-slice-node-13674344795",
    "name": "Love A Slice",
    "placeTypeId": "restaurant",
    "appId": "uk",
    "lat": 51.406704,
    "lon": -0.030237,
    "regionId": "london",
    "regionLabel": "Beckenham",
    "locationLabel": "260 High Street, Beckenham, BR3 1DZ",
    "websiteUrl": "https://loveaslice.com/locations/love-a-slice",
    "solarMode": "facade",
    "status": "unavailable"
  },
  {
    "id": "restaurants-lugana-node-308064675",
    "name": "Lugana",
    "placeTypeId": "restaurant",
    "appId": "uk",
    "lat": 51.398909,
    "lon": -0.040533,
    "regionId": "london",
    "regionLabel": "Beckenham",
    "locationLabel": "8 Eden Park Avenue, Beckenham, BR3 3HN",
    "websiteUrl": "https://restaurantlugana.co.uk",
    "solarMode": "facade",
    "status": "unavailable"
  },
  {
    "id": "restaurants-nandos-node-2132609031",
    "name": "Nando's",
    "placeTypeId": "restaurant",
    "appId": "uk",
    "lat": 51.406584,
    "lon": -0.030727,
    "regionId": "london",
    "regionLabel": "Beckenham",
    "locationLabel": "199-203 High Street, Beckenham, BR3 1AH",
    "websiteUrl": "https://www.nandos.co.uk/restaurants/beckenham",
    "solarMode": "facade",
    "status": "unavailable"
  },
  {
    "id": "restaurants-paloma-node-456384028",
    "name": "Paloma",
    "placeTypeId": "restaurant",
    "appId": "uk",
    "lat": 51.406533,
    "lon": -0.02823,
    "regionId": "london",
    "regionLabel": "Beckenham",
    "locationLabel": "149-151 High Street, Beckenham, BR3 1AG",
    "websiteUrl": "https://www.palomabeckenham.com",
    "solarMode": "facade",
    "status": "unavailable"
  },
  {
    "id": "restaurants-papilio-node-13678622611",
    "name": "Papilio",
    "placeTypeId": "restaurant",
    "appId": "uk",
    "lat": 51.408257,
    "lon": -0.025024,
    "regionId": "london",
    "regionLabel": "Beckenham",
    "locationLabel": "45 High Street, Beckenham, BR3 1AW",
    "websiteUrl": "https://papiliobeckenham.com",
    "solarMode": "facade",
    "status": "unavailable"
  },
  {
    "id": "restaurants-pizzaexpress-node-689572062",
    "name": "PizzaExpress",
    "placeTypeId": "restaurant",
    "appId": "uk",
    "lat": 51.406526,
    "lon": -0.030436,
    "regionId": "london",
    "regionLabel": "Beckenham",
    "locationLabel": "189 High Street, Beckenham, BR3 1AH",
    "websiteUrl": "https://www.pizzaexpress.com/beckenham-high-street",
    "instagramUrl": "https://instagram.com/pizzaexpress",
    "solarMode": "facade",
    "status": "unavailable",
    "wheelchairAccess": {
      "status": "yes",
      "confidence": "confirmed"
    },
    "foodTags": {
      "tags": [
        "pizza"
      ],
      "confidence": "confirmed"
    }
  },
  {
    "id": "restaurants-q-bar-node-11308536562",
    "name": "Q Bar",
    "placeTypeId": "restaurant",
    "appId": "uk",
    "lat": 51.406361,
    "lon": -0.02888,
    "regionId": "london",
    "regionLabel": "Beckenham",
    "locationLabel": "159 High Street, Beckenham, BR3 1AE",
    "websiteUrl": "https://qbarandkitchen.com",
    "solarMode": "facade",
    "status": "unavailable"
  },
  {
    "id": "restaurants-sharas-casual-dining-node-13684700229",
    "name": "Shara's Casual Dining",
    "placeTypeId": "restaurant",
    "appId": "uk",
    "lat": 51.406621,
    "lon": -0.032349,
    "regionId": "london",
    "regionLabel": "Beckenham",
    "locationLabel": "435 Croydon Road, Beckenham, BR3 3PP",
    "websiteUrl": "https://sharasiandining.co.uk",
    "solarMode": "facade",
    "status": "unavailable"
  },
  {
    "id": "restaurants-sweet-jerk-node-13674344796",
    "name": "Sweet Jerk",
    "placeTypeId": "restaurant",
    "appId": "uk",
    "lat": 51.406695,
    "lon": -0.030184,
    "regionId": "london",
    "regionLabel": "Beckenham",
    "locationLabel": "256-258 High Street, Beckenham, BR3 1DZ",
    "websiteUrl": "https://www.sweetjerk.com",
    "solarMode": "facade",
    "status": "unavailable"
  },
  {
    "id": "restaurants-tapeo-node-13652843515",
    "name": "Tapeo",
    "placeTypeId": "restaurant",
    "appId": "uk",
    "lat": 51.407704,
    "lon": -0.026982,
    "regionId": "london",
    "regionLabel": "Beckenham",
    "locationLabel": "142 High Street, Beckenham, BR3 1EA",
    "websiteUrl": "https://www.tapeocafe.co.uk",
    "solarMode": "facade",
    "status": "unavailable"
  },
  {
    "id": "restaurants-the-curry-cottage-node-13629815787",
    "name": "The Curry Cottage",
    "placeTypeId": "restaurant",
    "appId": "uk",
    "lat": 51.407385,
    "lon": -0.025278,
    "regionId": "london",
    "regionLabel": "Beckenham",
    "locationLabel": "7 Kelsey Park Road, Beckenham, BR3 6LH",
    "websiteUrl": "https://www.currycottage.info",
    "solarMode": "facade",
    "status": "unavailable"
  },
  {
    "id": "restaurants-the-lokanta-node-13652877798",
    "name": "The Lokanta",
    "placeTypeId": "restaurant",
    "appId": "uk",
    "lat": 51.407538,
    "lon": -0.027718,
    "regionId": "london",
    "regionLabel": "Beckenham",
    "locationLabel": "166 High Street, Beckenham, BR3 1EW",
    "websiteUrl": "https://thelokanta.co.uk",
    "solarMode": "facade",
    "status": "unavailable"
  },
  {
    "id": "restaurants-xentro-kitchen-node-456065275",
    "name": "Xentro Kitchen",
    "placeTypeId": "restaurant",
    "appId": "uk",
    "lat": 51.407734,
    "lon": -0.026539,
    "regionId": "london",
    "regionLabel": "Beckenham",
    "locationLabel": "128 High Street, Beckenham, BR3 1EB",
    "websiteUrl": "https://www.xentrokitchen.co.uk",
    "solarMode": "facade",
    "status": "unavailable"
  },
  {
    "id": "restaurants-zizzi-node-11308536564",
    "name": "Zizzi",
    "placeTypeId": "restaurant",
    "appId": "uk",
    "lat": 51.406408,
    "lon": -0.028692,
    "regionId": "london",
    "regionLabel": "Beckenham",
    "locationLabel": "157 High Street, Beckenham, BR3 1AE",
    "websiteUrl": "https://www.zizzi.co.uk/italian/restaurants/beckenham",
    "solarMode": "facade",
    "status": "unavailable"
  },
  {
    "id": "restaurants-baobun-node-1945534335",
    "name": "BaoBun",
    "placeTypeId": "restaurant",
    "appId": "uk",
    "lat": 54.575906,
    "lon": -5.954513,
    "regionId": "belfast",
    "regionLabel": "Belfast",
    "locationLabel": "338 Lisburn Road, Belfast, BT9 6GH",
    "websiteUrl": "https://www.baobunbelfast.com",
    "solarMode": "facade",
    "status": "unavailable"
  },
  {
    "id": "restaurants-baobun-way-815479169",
    "name": "BaoBun",
    "placeTypeId": "restaurant",
    "appId": "uk",
    "lat": 54.587886,
    "lon": -5.932641,
    "regionId": "belfast",
    "regionLabel": "Belfast",
    "locationLabel": "48 Botanic Avenue, Belfast, BT7 1JR",
    "websiteUrl": "https://www.baobunbelfast.com",
    "solarMode": "facade",
    "status": "unavailable"
  },
  {
    "id": "restaurants-bites-of-india-way-611308546",
    "name": "Bites of India",
    "placeTypeId": "restaurant",
    "appId": "uk",
    "lat": 54.589076,
    "lon": -5.933758,
    "regionId": "belfast",
    "regionLabel": "Belfast",
    "locationLabel": "11 Botanic Avenue, Belfast, BT7 1JG",
    "websiteUrl": "https://www.bitesofindia.com",
    "solarMode": "facade",
    "status": "unavailable"
  },
  {
    "id": "restaurants-camile-node-1945416990",
    "name": "Camile",
    "placeTypeId": "restaurant",
    "appId": "uk",
    "lat": 54.57548,
    "lon": -5.954926,
    "regionId": "belfast",
    "regionLabel": "Belfast",
    "locationLabel": "348 Lisburn Road, Belfast, BT9 6GH",
    "websiteUrl": "https://www.camile.co.uk",
    "solarMode": "facade",
    "status": "unavailable"
  },
  {
    "id": "restaurants-cathedral-quarter-pizzeria-node-11033561998",
    "name": "Cathedral Quarter Pizzeria",
    "placeTypeId": "restaurant",
    "appId": "uk",
    "lat": 54.601661,
    "lon": -5.928674,
    "regionId": "belfast",
    "regionLabel": "Belfast",
    "locationLabel": "24 Donegall Street, Belfast, BT1 2GP",
    "websiteUrl": "https://cathedralquarterpizzeria.co.uk",
    "solarMode": "facade",
    "status": "unavailable",
    "foodTags": {
      "tags": [
        "pizza"
      ],
      "confidence": "confirmed"
    }
  },
  {
    "id": "restaurants-darcys-way-1271207046",
    "name": "Darcy's",
    "placeTypeId": "restaurant",
    "appId": "uk",
    "lat": 54.589081,
    "lon": -5.934302,
    "regionId": "belfast",
    "regionLabel": "Belfast",
    "locationLabel": "10 Bradbury Place, Belfast, BT7 1RS",
    "websiteUrl": "https://www.darcysbelfast.co.uk",
    "solarMode": "facade",
    "status": "unavailable",
    "foodTags": {
      "tags": [
        "burger"
      ],
      "confidence": "confirmed"
    }
  },
  {
    "id": "restaurants-fallones-pizzeria-node-7875642206",
    "name": "Fallone's Pizzeria",
    "placeTypeId": "restaurant",
    "appId": "uk",
    "lat": 54.612086,
    "lon": -5.935663,
    "regionId": "belfast",
    "regionLabel": "Belfast",
    "locationLabel": "127 Antrim Road, Belfast, BT15 2BL",
    "websiteUrl": "https://www.fallonespizzabelfast.co.uk",
    "solarMode": "facade",
    "status": "unavailable",
    "foodTags": {
      "tags": [
        "pizza"
      ],
      "confidence": "confirmed"
    }
  },
  {
    "id": "restaurants-frankie-and-bennys-node-7289310084",
    "name": "Frankie & Benny's",
    "placeTypeId": "restaurant",
    "appId": "uk",
    "lat": 54.597987,
    "lon": -5.925554,
    "regionId": "belfast",
    "regionLabel": "Belfast",
    "locationLabel": "Victoria Square, Belfast, BT1 4QG",
    "websiteUrl": "https://www.frankieandbennys.com/restaurants/belfast-victoria-square",
    "solarMode": "facade",
    "status": "unavailable"
  },
  {
    "id": "restaurants-french-village-node-11309491507",
    "name": "French Village",
    "placeTypeId": "restaurant",
    "appId": "uk",
    "lat": 54.580884,
    "lon": -5.94894,
    "regionId": "belfast",
    "regionLabel": "Belfast",
    "locationLabel": "343 Lisburn Road, Belfast, BT9 7EP",
    "websiteUrl": "https://frenchvillage.com",
    "solarMode": "facade",
    "status": "unavailable",
    "foodTags": {
      "tags": [
        "sandwich"
      ],
      "confidence": "confirmed"
    }
  },
  {
    "id": "restaurants-greens-node-3526132584",
    "name": "Green's",
    "placeTypeId": "restaurant",
    "appId": "uk",
    "lat": 54.594843,
    "lon": -5.865482,
    "regionId": "belfast",
    "regionLabel": "Belfast",
    "locationLabel": "283-285 Upper Newtownards Road, Belfast, BT4 3JH",
    "websiteUrl": "https://www.greenspizza.com",
    "solarMode": "facade",
    "status": "unavailable",
    "foodTags": {
      "tags": [
        "pizza"
      ],
      "confidence": "confirmed"
    }
  },
  {
    "id": "restaurants-greens-pizza-node-1945419182",
    "name": "Greens Pizza",
    "placeTypeId": "restaurant",
    "appId": "uk",
    "lat": 54.575503,
    "lon": -5.955546,
    "regionId": "belfast",
    "regionLabel": "Belfast",
    "locationLabel": "549 Lisburn Road, Belfast, BT9 7GQ",
    "websiteUrl": "https://www.greenspizza.com",
    "solarMode": "facade",
    "status": "unavailable",
    "foodTags": {
      "tags": [
        "pizza"
      ],
      "confidence": "confirmed"
    }
  },
  {
    "id": "restaurants-kubo-node-1233760109",
    "name": "KUBO",
    "placeTypeId": "restaurant",
    "appId": "uk",
    "lat": 54.594335,
    "lon": -5.935618,
    "regionId": "belfast",
    "regionLabel": "Belfast",
    "locationLabel": "48-52 Great Victoria Street, BT12 5AH",
    "websiteUrl": "https://www.kubobelfast.com",
    "instagramUrl": "https://instagram.com/kubo.belfast",
    "solarMode": "facade",
    "status": "unavailable"
  },
  {
    "id": "restaurants-mourne-seafood-way-711677851",
    "name": "Mourne Seafood",
    "placeTypeId": "restaurant",
    "appId": "uk",
    "lat": 54.599516,
    "lon": -5.93239,
    "regionId": "belfast",
    "regionLabel": "Belfast",
    "locationLabel": "34-36 Bank Street, Belfast, Antrim, BT1 1HL",
    "websiteUrl": "https://www.mourneseafood.com/belfast",
    "solarMode": "facade",
    "status": "unavailable"
  },
  {
    "id": "restaurants-nandos-node-4271742611",
    "name": "Nando's",
    "placeTypeId": "restaurant",
    "appId": "uk",
    "lat": 54.593048,
    "lon": -5.931178,
    "regionId": "belfast",
    "regionLabel": "Belfast",
    "locationLabel": "24 Ormeau Avenue, Belfast, BT2 8HS",
    "websiteUrl": "https://www.nandos.co.uk/restaurants/belfast-bedford-street",
    "solarMode": "facade",
    "status": "unavailable",
    "wheelchairAccess": {
      "status": "yes",
      "confidence": "confirmed"
    }
  },
  {
    "id": "restaurants-nandos-node-10706839774",
    "name": "Nando's",
    "placeTypeId": "restaurant",
    "appId": "uk",
    "lat": 54.580148,
    "lon": -5.964958,
    "regionId": "belfast",
    "regionLabel": "Belfast",
    "locationLabel": "Boucher Crescent, Belfast, BT12 6HT",
    "websiteUrl": "https://www.nandos.co.uk/restaurants/belfast-boucher-crescent",
    "solarMode": "facade",
    "status": "unavailable"
  },
  {
    "id": "restaurants-nandos-node-12818746001",
    "name": "Nando's",
    "placeTypeId": "restaurant",
    "appId": "uk",
    "lat": 54.564827,
    "lon": -5.908262,
    "regionId": "belfast",
    "regionLabel": "Belfast",
    "locationLabel": "Unit 37 Upper Galwally, BT8 6FX",
    "websiteUrl": "https://www.nandos.co.uk/restaurants/belfast-forestside",
    "solarMode": "facade",
    "status": "unavailable"
  },
  {
    "id": "restaurants-nandos-way-629977328",
    "name": "Nando's",
    "placeTypeId": "restaurant",
    "appId": "uk",
    "lat": 54.654993,
    "lon": -5.918168,
    "regionId": "belfast",
    "regionLabel": "Belfast",
    "locationLabel": "Belfast",
    "websiteUrl": "https://www.nandos.co.uk/restaurants/belfast-abbey-centre",
    "solarMode": "facade",
    "status": "unavailable"
  },
  {
    "id": "restaurants-neills-hill-node-1163942492",
    "name": "Neills Hill",
    "placeTypeId": "restaurant",
    "appId": "uk",
    "lat": 54.595013,
    "lon": -5.868388,
    "regionId": "belfast",
    "regionLabel": "Belfast",
    "locationLabel": "229 Upper Newtownards Road, Belfast, BT4 3JF",
    "websiteUrl": "https://neillshill.com",
    "solarMode": "facade",
    "status": "unavailable"
  },
  {
    "id": "restaurants-nicos-node-13438390676",
    "name": "Nico’s",
    "placeTypeId": "restaurant",
    "appId": "uk",
    "lat": 54.58609,
    "lon": -5.922941,
    "regionId": "belfast",
    "regionLabel": "Belfast",
    "locationLabel": "114-116 Ormeau Road, Belfast, BT7 2EB",
    "websiteUrl": "https://www.mynicos.co.uk",
    "solarMode": "facade",
    "status": "unavailable",
    "wheelchairAccess": {
      "status": "yes",
      "confidence": "confirmed"
    },
    "foodTags": {
      "tags": [
        "pizza"
      ],
      "confidence": "confirmed"
    }
  },
  {
    "id": "restaurants-ox-node-3626668563",
    "name": "Ox",
    "placeTypeId": "restaurant",
    "appId": "uk",
    "lat": 54.599363,
    "lon": -5.922017,
    "regionId": "belfast",
    "regionLabel": "Belfast",
    "locationLabel": "1 Oxford Street, Belfast, BT1 3LA",
    "websiteUrl": "https://oxbelfast.com",
    "solarMode": "facade",
    "status": "unavailable"
  },