[
  {
    "id": "cafes-almondine-node-11349803402",
    "type": "cafe",
    "name": "Almondine",
    "regionId": "aberdeen",
    "regionLabel": "Aberdeen",
    "locationLabel": "15 Chapel Street, Aberdeen, AB10 1SQ",
    "lat": 57.144062,
    "lon": -2.110036,
    "outdoorArea": {
      "type": "outdoor-seating",
      "confidence": "confirmed"
    },
    "foodOffer": {
      "category": "pub-menu",
      "confidence": "confirmed"
    },
    "websiteUrl": "https://www.almondine.co.uk"
  },
  {
    "id": "cafes-aroma-node-12610493522",
    "type": "cafe",
    "name": "Aroma",
    "regionId": "aberdeen",
    "regionLabel": "Aberdeen",
    "locationLabel": "Aberdeen",
    "lat": 57.15477,
    "lon": -2.138174,
    "foodOffer": {
      "category": "pub-menu",
      "confidence": "confirmed"
    },
    "websiteUrl": "https://www.nhsgrampian.org/hospital-hub/shared-facilities/aroma-coffee-bar"
  },
  {
    "id": "cafes-asda-cafe-node-7500493456",
    "type": "cafe",
    "name": "Asda Café",
    "regionId": "aberdeen",
    "regionLabel": "Aberdeen",
    "locationLabel": "Garthdee Road, Aberdeen, AB10 7QA",
    "lat": 57.124745,
    "lon": -2.123253,
    "foodOffer": {
      "category": "pub-menu",
      "confidence": "confirmed"
    },
    "websiteUrl": "https://storelocator.asda.com/scotland/aberdeen/garth-dee-road-bridge-of-dee-aberdeen/cafe"
  },
  {
    "id": "cafes-asda-cafe-node-7500504915",
    "type": "cafe",
    "name": "Asda Café",
    "regionId": "aberdeen",
    "regionLabel": "Aberdeen",
    "locationLabel": "Aberdeen",
    "lat": 57.150525,
    "lon": -2.081569,
    "websiteUrl": "https://storelocator.asda.com/scotland/aberdeen/unit-1-beach-boulevard-retail-park/cafe"
  },
  {
    "id": "cafes-bagel-society-node-8927601220",
    "type": "cafe",
    "name": "Bagel Society",
    "regionId": "aberdeen",
    "regionLabel": "Aberdeen",
    "locationLabel": "68 Rosemount Place, Aberdeen, AB25 2XJ",
    "lat": 57.150518,
    "lon": -2.113094,
    "outdoorArea": {
      "type": "outdoor-seating",
      "confidence": "confirmed"
    },
    "websiteUrl": "https://bagelsociety.com"
  },
  {
    "id": "cafes-bevs-bistro-node-9117932367",
    "type": "cafe",
    "name": "Bev’s Bistro",
    "regionId": "aberdeen",
    "regionLabel": "Aberdeen",
    "locationLabel": "123 Holburn Street, Aberdeen, AB10 6BP",
    "lat": 57.139936,
    "lon": -2.113443,
    "websiteUrl": "https://bevsbistro.co.uk"
  },
  {
    "id": "cafes-biocafe-node-10914042506",
    "type": "cafe",
    "name": "BioCafe",
    "regionId": "aberdeen",
    "regionLabel": "Aberdeen",
    "locationLabel": "39 Rosemount Viaduct, Aberdeen, AB25 1NQ",
    "lat": 57.147915,
    "lon": -2.108328,
    "outdoorArea": {
      "type": "outdoor-seating",
      "confidence": "confirmed"
    },
    "wheelchairAccess": {
      "status": "no",
      "confidence": "confirmed"
    },
    "websiteUrl": "https://bio-cafe.co.uk"
  },
  {
    "id": "cafes-black-sheep-coffee-node-3805622067",
    "type": "cafe",
    "name": "Black Sheep Coffee",
    "regionId": "aberdeen",
    "regionLabel": "Aberdeen",
    "locationLabel": "Unit GS26/27 Guild Street, Aberdeen, AB11 5PN",
    "lat": 57.143822,
    "lon": -2.098189,
    "wheelchairAccess": {
      "status": "yes",
      "confidence": "confirmed"
    },
    "websiteUrl": "https://blacksheepcoffee.co.uk/blogs/locations/union-square"
  },
  {
    "id": "cafes-black-sheep-coffee-node-13069611932",
    "type": "cafe",
    "name": "Black Sheep Coffee",
    "regionId": "aberdeen",
    "regionLabel": "Aberdeen",
    "locationLabel": "73 Union Street, Aberdeen, AB11 6BD",
    "lat": 57.146711,
    "lon": -2.097476,
    "websiteUrl": "https://blacksheepcoffee.co.uk/blogs/locations/union-street"
  },
  {
    "id": "cafes-books-and-beans-way-314723708",
    "type": "cafe",
    "name": "Books and Beans",
    "regionId": "aberdeen",
    "regionLabel": "Aberdeen",
    "locationLabel": "22 Belmont Street, Aberdeen, AB10 1JH",
    "lat": 57.146942,
    "lon": -2.101259,
    "outdoorArea": {
      "type": "outdoor-seating",
      "confidence": "confirmed"
    },
    "websiteUrl": "https://booksandbeans.co.uk"
  },
  {
    "id": "cafes-bubble-citea-node-12061809461",
    "type": "cafe",
    "name": "Bubble CiTea",
    "regionId": "aberdeen",
    "regionLabel": "Aberdeen",
    "locationLabel": "Guild Street, Aberdeen, AB11 5PS",
    "lat": 57.144063,
    "lon": -2.09817,
    "websiteUrl": "https://bubblecitea.com"
  },
  {
    "id": "cafes-cafe-ahoy-node-5927480255",
    "type": "cafe",
    "name": "Cafe Ahoy",
    "regionId": "aberdeen",
    "regionLabel": "Aberdeen",
    "locationLabel": "Beach Boulevard, Aberdeen, AB24 5HP",
    "lat": 57.150065,
    "lon": -2.087721,
    "outdoorArea": {
      "type": "outdoor-seating",
      "confidence": "confirmed"
    },
    "websiteUrl": "https://www.cafeahoy.co.uk"
  },
  {
    "id": "cafes-cafe-contour-node-11167580315",
    "type": "cafe",
    "name": "Cafe Contour",
    "regionId": "aberdeen",
    "regionLabel": "Aberdeen",
    "locationLabel": "47 The Green, Aberdeen, AB11 6NY",
    "lat": 57.145923,
    "lon": -2.098826,
    "outdoorArea": {
      "type": "outdoor-seating",
      "confidence": "confirmed"
    },
    "wheelchairAccess": {
      "status": "yes",
      "confidence": "confirmed"
    },
    "foodTags": {
      "tags": [
        "pizza",
        "sandwich"
      ],
      "confidence": "confirmed"
    },
    "websiteUrl": "https://contourcatering.co.uk"
  },
  {
    "id": "cafes-caffe-nero-node-4590032276",
    "type": "cafe",
    "name": "Caffè Nero",
    "regionId": "aberdeen",
    "regionLabel": "Aberdeen",
    "locationLabel": "160-162 Union Street, Aberdeen, AB10 1QT",
    "lat": 57.145314,
    "lon": -2.103902,
    "wheelchairAccess": {
      "status": "yes",
      "confidence": "confirmed"
    },
    "websiteUrl": "https://www.caffenero.com/uk/stores/aberdeen-union-st"
  },
  {
    "id": "cafes-caffe-nero-node-6054432438",
    "type": "cafe",
    "name": "Caffè Nero",
    "regionId": "aberdeen",
    "regionLabel": "Aberdeen",
    "locationLabel": "452-456 Union Street, Aberdeen, AB10 1TR",
    "lat": 57.1434,
    "lon": -2.110609,
    "websiteUrl": "https://www.caffenero.com/uk/stores/aberdeen-rose-st"
  },
  {
    "id": "cafes-caffe-nero-way-314093672",
    "type": "cafe",
    "name": "Caffè Nero",
    "regionId": "aberdeen",
    "regionLabel": "Aberdeen",
    "locationLabel": "3-5 St. Nicholas Street, Aberdeen, AB10 1HE",
    "lat": 57.147106,
    "lon": -2.098118,
    "websiteUrl": "https://www.caffenero.com/uk/stores/aberdeen-union-st"
  },
  {
    "id": "cafes-common-sense-node-10303687552",
    "type": "cafe",
    "name": "Common Sense",
    "regionId": "aberdeen",
    "regionLabel": "Aberdeen",
    "locationLabel": "Union Terrace, Aberdeen, AB10 1DF",
    "lat": 57.147546,
    "lon": -2.105243,
    "wheelchairAccess": {
      "status": "yes",
      "confidence": "confirmed"
    },
    "websiteUrl": "https://common-sense.co.uk"
  },
  {
    "id": "cafes-costa-node-6732213796",
    "type": "cafe",
    "name": "Costa",
    "regionId": "aberdeen",
    "regionLabel": "Aberdeen",
    "locationLabel": "Bon Accord Centre, Aberdeen, AB25 1HZ",
    "lat": 57.149191,
    "lon": -2.099574,
    "wheelchairAccess": {
      "status": "yes",
      "confidence": "confirmed"
    },
    "websiteUrl": "https://www.costa.co.uk"
  },
  {
    "id": "cafes-cupp-bubble-tea-node-11349803401",
    "type": "cafe",
    "name": "Cupp Bubble Tea",
    "regionId": "aberdeen",
    "regionLabel": "Aberdeen",
    "locationLabel": "17 Thistle Street, Aberdeen, AB10 1XZ",
    "lat": 57.143995,
    "lon": -2.110891,
    "websiteUrl": "https://www.cuppbubbletea.co.uk"
  },
  {
    "id": "cafes-foodstory-node-6738525985",
    "type": "cafe",
    "name": "Foodstory",
    "regionId": "aberdeen",
    "regionLabel": "Aberdeen",
    "locationLabel": "11-15 Thistle Street, Aberdeen, AB10 1XZ",
    "lat": 57.144009,
    "lon": -2.110686,
    "websiteUrl": "https://foodstorycafe.co.uk",
    "instagramUrl": "https://instagram.com/foodstoryscotland"
  },
  {
    "id": "cafes-greyhope-bay-centre-way-1053362786",
    "type": "cafe",
    "name": "Greyhope Bay Centre",
    "regionId": "aberdeen",
    "regionLabel": "Aberdeen",
    "locationLabel": "Greyhope Road, Aberdeen, AB11 8QX",
    "lat": 57.14186,
    "lon": -2.059025,
    "outdoorArea": {
      "type": "outdoor-seating",
      "confidence": "confirmed"
    },
    "websiteUrl": "https://www.greyhopebay.com"
  },
  {
    "id": "cafes-grub-node-3375132799",
    "type": "cafe",
    "name": "Grub",
    "regionId": "aberdeen",
    "regionLabel": "Aberdeen",
    "locationLabel": "148 Spital, Aberdeen, AB24 3JU",
    "lat": 57.160552,
    "lon": -2.100478,
    "petFriendly": {
      "status": "pet-friendly",
      "confidence": "confirmed"
    },
    "wheelchairAccess": {
      "status": "limited",
      "confidence": "confirmed"
    },
    "foodTags": {
      "tags": [
        "sandwich"
      ],
      "confidence": "confirmed"
    },
    "websiteUrl": "https://grubfreshfood.com"
  },
  {
    "id": "cafes-grub-node-3599504472",
    "type": "cafe",
    "name": "Grub",
    "regionId": "aberdeen",
    "regionLabel": "Aberdeen",
    "locationLabel": "179 Constitution Street, Aberdeen, AB24 5TU",
    "lat": 57.153262,
    "lon": -2.084377,
    "wheelchairAccess": {
      "status": "yes",
      "confidence": "confirmed"
    },
    "foodTags": {
      "tags": [
        "sandwich"
      ],
      "confidence": "confirmed"
    },
    "websiteUrl": "https://aberdeensciencecentre.org/food-drink"
  },
  {
    "id": "cafes-jungle-berry-node-6055020650",
    "type": "cafe",
    "name": "Jungle Berry",
    "regionId": "aberdeen",
    "regionLabel": "Aberdeen",
    "locationLabel": "409 Union Street, Aberdeen, AB11 6DA",
    "lat": 57.143502,
    "lon": -2.109181,
    "websiteUrl": "https://www.jungleberryacai.com"
  },
  {
    "id": "cafes-kilau-coffee-node-1647979141",
    "type": "cafe",
    "name": "Kilau Coffee",
    "regionId": "aberdeen",
    "regionLabel": "Aberdeen",
    "locationLabel": "57 High Street, Aberdeen, AB24 3EH",
    "lat": 57.165639,
    "lon": -2.102284,
    "websiteUrl": "https://kilaucoffee.wordpress.com"
  },
  {
    "id": "cafes-mount-node-9241869054",
    "type": "cafe",
    "name": "Mount",
    "regionId": "aberdeen",
    "regionLabel": "Aberdeen",
    "locationLabel": "6 Upperkirkgate, Aberdeen, AB10 1BA",
    "lat": 57.149079,
    "lon": -2.098027,
    "websiteUrl": "https://www.mountaberdeen.com",
    "instagramUrl": "https://instagram.com/mountaberdeen"
  },
  {
    "id": "cafes-parx-cafe-node-13647661036",
    "type": "cafe",
    "name": "Parx Cafe",
    "regionId": "aberdeen",
    "regionLabel": "Aberdeen",
    "locationLabel": "19 Rubislaw Terrace, Aberdeen, AB10 1XE",
    "lat": 57.143474,
    "lon": -2.118309,
    "websiteUrl": "https://parxcafe.co.uk"
  },
  {
    "id": "cafes-so-nyc-bagels-and-brew-node-9106209425",
    "type": "cafe",
    "name": "So...NYC Bagels & Brew",
    "regionId": "aberdeen",
    "regionLabel": "Aberdeen",
    "locationLabel": "269 Union Street, Aberdeen, AB11 6BR",
    "lat": 57.144239,
    "lon": -2.106405,
    "foodTags": {
      "tags": [
        "sandwich"
      ],
      "confidence": "confirmed"
    },
    "websiteUrl": "https://www.soaberdeen.co.uk",
    "instagramUrl": "https://instagram.com/sonyc.aberdeen"
  },
  {
    "id": "cafes-starbucks-node-290633289",
    "type": "cafe",
    "name": "Starbucks",
    "regionId": "aberdeen",
    "regionLabel": "Aberdeen",
    "locationLabel": "208 Union Street, Aberdeen, AB10 1TL",
    "lat": 57.14476,
    "lon": -2.105887,
    "websiteUrl": "https://www.starbucks.com/store-locator/store/2400/aberdeen-union-street-208-union-street-aberdeen-sct-ab-10-1-tl-gb"
  },
  {
    "id": "cafes-starbucks-node-1022489491",
    "type": "cafe",
    "name": "Starbucks",
    "regionId": "aberdeen",
    "regionLabel": "Aberdeen",
    "locationLabel": "2-4 Upperkirkgate, Aberdeen, AB10 1BA",
    "lat": 57.149153,
    "lon": -2.097843,
    "outdoorArea": {
      "type": "outdoor-seating",
      "confidence": "confirmed"
    },
    "wheelchairAccess": {
      "status": "yes",
      "confidence": "confirmed"
    },
    "websiteUrl": "https://www.starbucks.com/store-locator/store/2907/aberdeen-upperkirkgate-upperkirkgate-2-4-aberdeen-sct-ab-10-1-ba-gb"
  },
  {
    "id": "cafes-starbucks-node-3200069984",
    "type": "cafe",
    "name": "Starbucks",
    "regionId": "aberdeen",
    "regionLabel": "Aberdeen",
    "locationLabel": "Aberdeen",
    "lat": 57.142544,
    "lon": -2.09615,
    "wheelchairAccess": {
      "status": "yes",
      "confidence": "confirmed"
    },
    "websiteUrl": "https://www.starbucks.com/store-locator/store/18762/aberdeen-union-square-mc-2-first-floor-level-union-square-aberdeen-sct-a"
  },
  {
    "id": "cafes-starbucks-node-6054668193",
    "type": "cafe",
    "name": "Starbucks",
    "regionId": "aberdeen",
    "regionLabel": "Aberdeen",
    "locationLabel": "496 Union Street, Aberdeen, AB10 1TS",
    "lat": 57.143079,
    "lon": -2.111755,
    "websiteUrl": "https://www.starbucks.com/store-locator/store/2904/aberdeen-holburn-junction-496-union-street-aberdeen-sct-ab-10-1-ts-gb"
  },
  {
    "id": "cafes-the-bread-maker-node-1907704038",
    "type": "cafe",
    "name": "The Bread Maker",
    "regionId": "aberdeen",
    "regionLabel": "Aberdeen",
    "locationLabel": "50/52 Rosemount Viaduct Rosemount Viaduct, Aberdeen, AB25 1NT",
    "lat": 57.148177,
    "lon": -2.108455,
    "websiteUrl": "https://www.thebreadmaker.org.uk"
  },
  {
    "id": "cafes-the-park-cafe-way-128912374",
    "type": "cafe",
    "name": "The Park Cafe",
    "regionId": "aberdeen",
    "regionLabel": "Aberdeen",
    "locationLabel": "Polmuir Road, Aberdeen, AB11 7TH",
    "lat": 57.131779,
    "lon": -2.103646,
    "outdoorArea": {
      "type": "outdoor-seating",
      "confidence": "confirmed"
    },
    "wheelchairAccess": {
      "status": "yes",
      "confidence": "confirmed"
    },
    "websiteUrl": "https://www.park-cafe.co.uk"
  },
  {
    "id": "cafes-addlestone-community-cafe-node-13725189754",
    "type": "cafe",
    "name": "Addlestone Community Cafe",
    "regionId": "london",
    "regionLabel": "Addlestone",
    "locationLabel": "Garfield Road, Addlestone, KT15 2NJ",
    "lat": 51.370916,
    "lon": -0.488408,
    "foodOffer": {
      "category": "snacks",
      "confidence": "confirmed"
    },
    "websiteUrl": "https://www.addlestonecommunityassociation.org"
  },
  {
    "id": "cafes-costa-node-2552974569",
    "type": "cafe",
    "name": "Costa",
    "regionId": "london",
    "regionLabel": "Addlestone",
    "locationLabel": "108-110 Station Road, Addlestone, KT15 2BQ",
    "lat": 51.371445,
    "lon": -0.487557,
    "wheelchairAccess": {
      "status": "yes",
      "confidence": "confirmed"
    },
    "websiteUrl": "https://www.costa.co.uk/locations/store-locator"
  },
  {
    "id": "cafes-hebrews-node-12687024015",
    "type": "cafe",
    "name": "Hebrews",
    "regionId": "london",
    "regionLabel": "Addlestone",
    "locationLabel": "Church Road, Addlestone, KT15 1TB",
    "lat": 51.368702,
    "lon": -0.502695,
    "websiteUrl": "https://www.stpaulscofe.org/hebrewscoffeeshop.htm"
  },
  {
    "id": "cafes-mooboo-node-11775089740",
    "type": "cafe",
    "name": "Mooboo",
    "regionId": "london",
    "regionLabel": "Addlestone",
    "locationLabel": "The Lane, Addlestone, KT15 2GN",
    "lat": 51.370686,
    "lon": -0.490086,
    "websiteUrl": "https://www.mooboo.co"
  },
  {
    "id": "cafes-project-cafe-addlestone-node-13725189755",
    "type": "cafe",
    "name": "Project Café Addlestone",
    "regionId": "london",
    "regionLabel": "Addlestone",
    "locationLabel": "44B High Street, Addlestone, KT15 1TR",
    "lat": 51.372381,
    "lon": -0.492883,
    "websiteUrl": "https://www.countycare.co.uk/project-cafe"
  },
  {
    "id": "cafes-asda-cafe-node-7497107442",
    "type": "cafe",
    "name": "Asda Café",
    "regionId": "manchester",
    "regionLabel": "Altrincham",
    "locationLabel": "90 George Richards Way, Altrincham, WA14 5ZR",
    "lat": 53.398131,
    "lon": -2.363568,
    "foodOffer": {
      "category": "pub-menu",
      "confidence": "confirmed"
    },
    "websiteUrl": "https://storelocator.asda.com/north-west/altrincham/90-george-richards-way-broadheath/cafe"
  },
  {
    "id": "cafes-caffe-nero-node-5258609795",
    "type": "cafe",
    "name": "Caffè Nero",
    "regionId": "manchester",
    "regionLabel": "Altrincham",
    "locationLabel": "Shaw's Road, Altrincham",
    "lat": 53.387188,
    "lon": -2.350682,
    "websiteUrl": "https://www.caffenero.com/uk/stores/altrincham"
  },
  {
    "id": "cafes-kickback-coffee-node-11737932222",
    "type": "cafe",
    "name": "Kickback Coffee",
    "regionId": "manchester",
    "regionLabel": "Altrincham",
    "locationLabel": "4 Viaduct Road, Altrincham, WA14 5DU",
    "lat": 53.399397,
    "lon": -2.348422,
    "websiteUrl": "https://kickbackcoffee.co.uk"
  },
  {
    "id": "cafes-starbucks-node-1300485965",
    "type": "cafe",
    "name": "Starbucks",
    "regionId": "manchester",
    "regionLabel": "Altrincham",
    "locationLabel": "Lloyd Street, Altrincham, WA14 2SU",
    "lat": 53.383783,
    "lon": -2.350375,
    "websiteUrl": "https://www.starbucks.com/store-locator/store/2799/altrincham-sainsburys-lloyd-street-altrincham-eng-wa-14-2-su-gb"
  },
  {
    "id": "cafes-twig-and-spoon-node-3810334335",
    "type": "cafe",
    "name": "Twig and Spoon",
    "regionId": "london",
    "regionLabel": "Ash",
    "locationLabel": "Ash Lane, Ash, TN15 7EG",
    "lat": 51.331104,
    "lon": 0.284856,
    "websiteUrl": "https://www.twigandspoon.co.uk"
  },
  {
    "id": "cafes-96-degrees-node-13073395733",
    "type": "cafe",
    "name": "96 Degrees",
    "regionId": "london",
    "regionLabel": "Ashford",
    "locationLabel": "Fordbridge Park, Ashford, TW15 3SJ",
    "lat": 51.426701,
    "lon": -0.476955,
    "outdoorArea": {
      "type": "outdoor-seating",
      "confidence": "confirmed"
    },
    "foodOffer": {
      "category": "pub-menu",
      "confidence": "confirmed"
    },
    "websiteUrl": "https://tennisspelthorne.com/96-degrees-coffee-shop"
  },
  {
    "id": "cafes-tarla-cafe-and-grill-node-3573166721",
    "type": "cafe",
    "name": "Tarla Cafe & Grill",
    "regionId": "london",
    "regionLabel": "Ashford",
    "locationLabel": "11 New Parade, Ashford, TW15 2UF",
    "lat": 51.4346,
    "lon": -0.465855,
    "websiteUrl": "https://www.tarlacafe.co.uk"
  },
  {
    "id": "cafes-cafe-chai-node-5996337155",
    "type": "cafe",
    "name": "Cafe Chai",
    "regionId": "london",
    "regionLabel": "Banstead",
    "locationLabel": "135 High Street, Banstead, SM7 2NS",
    "lat": 51.32372,
    "lon": -0.198124,
    "outdoorArea": {
      "type": "outdoor-seating",
      "confidence": "confirmed"
    },
    "websiteUrl": "https://www.cafechai.co.uk"
  },
  {
    "id": "cafes-caffe-italia-node-5996357573",
    "type": "cafe",
    "name": "Caffè Italia",
    "regionId": "london",
    "regionLabel": "Banstead",
    "locationLabel": "49 High Street, Banstead, SM7 2NL",
    "lat": 51.322612,
    "lon": -0.202087,
    "websiteUrl": "https://caffeitaliabanstead.co.uk"
  },
  {
    "id": "cafes-caffe-nero-node-5996591283",
    "type": "cafe",
    "name": "Caffè Nero",
    "regionId": "london",
    "regionLabel": "Banstead",
    "locationLabel": "37 High Street, Banstead, SM7 2NH",
    "lat": 51.322422,
    "lon": -0.202888,
    "websiteUrl": "https://www.caffenero.com/uk/stores/banstead"
  },
  {
    "id": "cafes-starbucks-way-314787507",
    "type": "cafe",
    "name": "Starbucks",
    "regionId": "london",
    "regionLabel": "Barking",
    "locationLabel": "37 Station Parade, Barking, IG11 8EB",
    "lat": 51.539086,
    "lon": 0.080654,
    "websiteUrl": "https://www.starbucks.co.uk/store-locator/67851-302707"
  },
  {
    "id": "cafes-little-crafters-cafe-way-328680358",
    "type": "cafe",
    "name": "Little Crafters Cafe",
    "regionId": "london",
    "regionLabel": "Barnet",
    "locationLabel": "102 Cockfosters Road, Barnet, EN4 0DP",
    "lat": 51.649488,
    "lon": -0.147888,
    "websiteUrl": "https://www.littlecrafterscafe.co.uk"
  },
  {
    "id": "cafes-nkora-node-8687620814",
    "type": "cafe",
    "name": "Nkora",
    "regionId": "london",
    "regionLabel": "Barnet",
    "locationLabel": "High Street, Barnet, EN5 5XY",
    "lat": 51.65534,
    "lon": -0.202023,
    "outdoorArea": {
      "type": "outdoor-seating",
      "confidence": "confirmed"
    },
    "websiteUrl": "https://nkora.co.uk"
  },
  {
    "id": "cafes-4w-cafe-node-1014761201",
    "type": "cafe",
    "name": "4W Café",
    "regionId": "bath",
    "regionLabel": "Bath",
    "locationLabel": "BA2 7BT",
    "lat": 51.379652,
    "lon": -2.329508,
    "wheelchairAccess": {
      "status": "yes",
      "confidence": "confirmed"
    },
    "foodOffer": {
      "category": "pub-menu",
      "confidence": "confirmed"
    },
    "foodTags": {
      "tags": [
        "sandwich"
      ],
      "confidence": "confirmed"
    },
    "websiteUrl": "https://www.bath.ac.uk/locations/4w-cafe"
  },
  {
    "id": "cafes-adventure-cafe-way-594364547",
    "type": "cafe",
    "name": "Adventure Cafe",
    "regionId": "bath",
    "regionLabel": "Bath",
    "locationLabel": "5 George Street, BA1 2ED",
    "lat": 51.385242,
    "lon": -2.36132,
    "outdoorArea": {
      "type": "outdoor-seating",
      "confidence": "confirmed"
    },
    "wheelchairAccess": {
      "status": "limited",
      "confidence": "confirmed"
    },
    "foodOffer": {
      "category": "pub-menu",
      "confidence": "confirmed"
    },
    "websiteUrl": "https://www.adventurecafebar.co.uk"
  },
  {
    "id": "cafes-bathzaar-and-laqum-node-4307452863",
    "type": "cafe",
    "name": "Bathzaar And Laqum",
    "regionId": "bath",
    "regionLabel": "Bath",
    "locationLabel": "17 The Corridor, BA1 5AP",
    "lat": 51.382228,
    "lon": -2.359749,
    "wheelchairAccess": {
      "status": "no",
      "confidence": "confirmed"
    },
    "websiteUrl": "https://www.authenticdelight.co.uk"
  },
  {
    "id": "cafes-boston-tea-party-way-117879804",
    "type": "cafe",
    "name": "Boston Tea Party",
    "regionId": "bath",
    "regionLabel": "Bath",
    "locationLabel": "8 Alfred Street, BA1 2QU",
    "lat": 51.385832,
    "lon": -2.362044,
    "wheelchairAccess": {
      "status": "yes",
      "confidence": "confirmed"
    },
    "websiteUrl": "https://bostonteaparty.co.uk/cafes/bath-alfred-street"
  },
  {
    "id": "cafes-boston-tea-party-way-121086479",
    "type": "cafe",
    "name": "Boston Tea Party",
    "regionId": "bath",
    "regionLabel": "Bath",
    "locationLabel": "BA1 2AE",
    "lat": 51.381461,
    "lon": -2.363044,
    "wheelchairAccess": {
      "status": "limited",
      "confidence": "confirmed"
    },
    "websiteUrl": "https://bostonteaparty.co.uk/cafes/bath-kingsmead-square"
  },
  {
    "id": "cafes-bright-field-cafe-way-485163940",
    "type": "cafe",
    "name": "Bright Field Cafe",
    "regionId": "bath",
    "regionLabel": "Bath",
    "locationLabel": "30 Shaftesbury Road, Bath, BA2 3LJ",
    "lat": 51.376591,
    "lon": -2.377668,
    "websiteUrl": "https://www.brightfield.org.uk"
  },
  {
    "id": "cafes-bubble-ci-tea-node-7837077853",
    "type": "cafe",
    "name": "Bubble Ci•Tea",
    "regionId": "bath",
    "regionLabel": "Bath",
    "locationLabel": "16 Southgate Place, BA1 1AP",
    "lat": 51.378671,
    "lon": -2.358249,
    "websiteUrl": "https://bubblecitea.com"
  },
  {
    "id": "cafes-cafe-at-the-centre-node-1115457938",
    "type": "cafe",
    "name": "Cafe at the Centre",
    "regionId": "bath",
    "regionLabel": "Bath",
    "locationLabel": "BA1 1JW",
    "lat": 51.378747,
    "lon": -2.356785,
    "wheelchairAccess": {
      "status": "yes",
      "confidence": "confirmed"
    },
    "websiteUrl": "https://manversstreetbaptist.wordpress.com/the-open-house-centre/cafe-at-the-centre"
  },
  {
    "id": "cafes-cafe-au-lait-way-75900413",
    "type": "cafe",
    "name": "Cafe au Lait",
    "regionId": "bath",
    "regionLabel": "Bath",
    "locationLabel": "12-14 Dorchester Street, BA1 1SS",
    "lat": 51.37803,
    "lon": -2.357282,
    "wheelchairAccess": {
      "status": "yes",
      "confidence": "confirmed"
    },
    "websiteUrl": "https://www.cafeaulait.co.uk"
  },
  {
    "id": "cafes-cafe-lucca-the-loft-node-4307205511",
    "type": "cafe",
    "name": "Cafe Lucca (The Loft)",
    "regionId": "bath",
    "regionLabel": "Bath",
    "locationLabel": "1 Bartlett Street, Bath, BA1 2QZ",
    "lat": 51.385646,
    "lon": -2.362028,
    "wheelchairAccess": {
      "status": "yes",
      "confidence": "confirmed"
    },
    "websiteUrl": "https://www.cafelucca.co.uk"
  },
  {
    "id": "cafes-cafe-pastel-way-373986062",
    "type": "cafe",
    "name": "Cafe Pastel",
    "regionId": "bath",
    "regionLabel": "Bath",
    "locationLabel": "8 Abbey Green, Bath, BA1 1NW",
    "lat": 51.38037,
    "lon": -2.359052,
    "websiteUrl": "https://cafepastel.co.uk"
  },
  {
    "id": "cafes-cafe-walcot-node-5958363485",
    "type": "cafe",
    "name": "Cafe Walcot",
    "regionId": "bath",
    "regionLabel": "Bath",
    "locationLabel": "90b Walcot Street, BA1 5BG",
    "lat": 51.386446,
    "lon": -2.359377,
    "wheelchairAccess": {
      "status": "no",
      "confidence": "confirmed"
    },
    "websiteUrl": "https://www.walcothousebath.com"
  },
  {
    "id": "cafes-caffe-nero-node-3132211102",
    "type": "cafe",
    "name": "Caffè Nero",
    "regionId": "bath",
    "regionLabel": "Bath",
    "locationLabel": "Dorchester Street, BA1 1SS",
    "lat": 51.378072,
    "lon": -2.35857,
    "wheelchairAccess": {
      "status": "yes",
      "confidence": "confirmed"
    },
    "websiteUrl": "https://www.caffenero.com/uk/stores/bath-southgate"
  },
  {
    "id": "cafes-caffe-nero-way-90972048",
    "type": "cafe",
    "name": "Caffè Nero",
    "regionId": "bath",
    "regionLabel": "Bath",
    "locationLabel": "11 Old Bond Street, BA1 1BP",
    "lat": 51.382555,
    "lon": -2.361158,
    "outdoorArea": {
      "type": "outdoor-seating",
      "confidence": "confirmed"
    },
    "wheelchairAccess": {
      "status": "limited",
      "confidence": "confirmed"
    },
    "websiteUrl": "https://www.caffenero.com/uk/stores/bath-old-bond-st"
  },
  {
    "id": "cafes-central-youth-cafe-node-4791671835",
    "type": "cafe",
    "name": "Central Youth Cafe",
    "regionId": "bath",
    "regionLabel": "Bath",
    "locationLabel": "BA1 5DU",
    "lat": 51.385932,
    "lon": -2.360551,
    "wheelchairAccess": {
      "status": "no",
      "confidence": "confirmed"
    },
    "websiteUrl": "https://oasisbath.org"
  },
  {
    "id": "cafes-coffee-1-node-5838352165",
    "type": "cafe",
    "name": "Coffee#1",
    "regionId": "bath",
    "regionLabel": "Bath",
    "locationLabel": "Unit 1 Victoria Bridge Road, BA2 3GG",
    "lat": 51.383461,
    "lon": -2.373855,
    "wheelchairAccess": {
      "status": "yes",
      "confidence": "confirmed"
    },
    "websiteUrl": "https://www.coffee1.co.uk/locations/bath"
  },
  {
    "id": "cafes-coffee-1-way-595235836",
    "type": "cafe",
    "name": "Coffee#1",
    "regionId": "bath",
    "regionLabel": "Bath",
    "locationLabel": "3 James Street West, BA1 2AG",
    "lat": 51.381168,
    "lon": -2.364447,
    "wheelchairAccess": {
      "status": "yes",
      "confidence": "confirmed"
    },
    "websiteUrl": "https://www.coffee1.co.uk/locations/bath-city-centre"
  },
  {
    "id": "cafes-coffever-way-993778462",
    "type": "cafe",
    "name": "Coffever",
    "regionId": "bath",
    "regionLabel": "Bath",
    "locationLabel": "14 Northumberland Place, Bath, BA1 5AR",
    "lat": 51.382374,
    "lon": -2.359904,
    "outdoorArea": {
      "type": "outdoor-seating",
      "confidence": "confirmed"
    },
    "wheelchairAccess": {
      "status": "no",
      "confidence": "confirmed"
    },
    "websiteUrl": "https://coffever.co.uk",
    "instagramUrl": "https://instagram.com/coffever2018"
  },
  {
    "id": "cafes-coret-way-431943048",
    "type": "cafe",
    "name": "Coret",
    "regionId": "bath",
    "regionLabel": "Bath",
    "locationLabel": "17 Milsom Place, BA1 1BZ",
    "lat": 51.383847,
    "lon": -2.360964,
    "wheelchairAccess": {
      "status": "yes",
      "confidence": "confirmed"
    },
    "websiteUrl": "https://www.milsomplace.co.uk/stores/coret",
    "instagramUrl": "https://instagram.com/coret_coffee"
  },
  {
    "id": "cafes-costa-way-373546299",
    "type": "cafe",
    "name": "Costa",
    "regionId": "bath",
    "regionLabel": "Bath",
    "locationLabel": "44 Stall Street, BA1 1QH",
    "lat": 51.381418,
    "lon": -2.36073,
    "wheelchairAccess": {
      "status": "limited",
      "confidence": "confirmed"
    },
    "websiteUrl": "https://www.costa.co.uk"
  },
  {
    "id": "cafes-costa-way-477880625",
    "type": "cafe",
    "name": "Costa",
    "regionId": "bath",
    "regionLabel": "Bath",
    "locationLabel": "Unit 4 Lower Bristol Road, BA2 1EP",
    "lat": 51.381544,
    "lon": -2.385913,
    "websiteUrl": "https://www.costa.co.uk"
  },
  {
    "id": "cafes-da-vinci-italian-deli-way-577719390",
    "type": "cafe",
    "name": "Da Vinci Italian Deli",
    "regionId": "bath",
    "regionLabel": "Bath",
    "locationLabel": "33a Wellsway, BA2 4RR",
    "lat": 51.373509,
    "lon": -2.366248,
    "wheelchairAccess": {
      "status": "yes",
      "confidence": "confirmed"
    },
    "websiteUrl": "https://davincideli.com"
  },
  {
    "id": "cafes-dexters-way-216615156",
    "type": "cafe",
    "name": "Dexter's",
    "regionId": "bath",
    "regionLabel": "Bath",
    "locationLabel": "1 Bathwick Hill, BA2 4EN",
    "lat": 51.382701,
    "lon": -2.349347,
    "websiteUrl": "https://dexterscoffeeshop.com",
    "instagramUrl": "https://instagram.com/dexterscoffeeshop"
  },
  {
    "id": "cafes-dianas-cafe-way-75900295",
    "type": "cafe",
    "name": "Diana's Cafe",
    "regionId": "bath",
    "regionLabel": "Bath",
    "locationLabel": "14a Manvers Street, BA1 1JH",
    "lat": 51.378097,
    "lon": -2.357202,
    "wheelchairAccess": {
      "status": "no",
      "confidence": "confirmed"
    },
    "websiteUrl": "https://www.dianascafe.co.uk/bath"
  },
  {
    "id": "cafes-flos-cafe-node-6380913598",
    "type": "cafe",
    "name": "Flo's Café",
    "regionId": "bath",
    "regionLabel": "Bath",
    "locationLabel": "Manvers Street, BA1 1JW",
    "lat": 51.379396,
    "lon": -2.356599,
    "websiteUrl": "https://www.thesubath.com/news/article/thesu/Flos-Cafe-has-officially-opened"
  },
  {
    "id": "cafes-gails-way-373546340",
    "type": "cafe",
    "name": "GAIL's",
    "regionId": "bath",
    "regionLabel": "Bath",
    "locationLabel": "12-13 Union Street, BA1 1RR",
    "lat": 51.382522,
    "lon": -2.360532,
    "outdoorArea": {
      "type": "outdoor-seating",
      "confidence": "confirmed"
    },
    "wheelchairAccess": {
      "status": "limited",
      "confidence": "confirmed"
    },
    "websiteUrl": "https://gails.com/pages/union-street-bath"
  },
  {
    "id": "cafes-garden-cafe-node-3611156994",
    "type": "cafe",
    "name": "Garden Café",
    "regionId": "bath",
    "regionLabel": "Bath",
    "locationLabel": "BA2 4DB",
    "lat": 51.385823,
    "lon": -2.350728,
    "wheelchairAccess": {
      "status": "yes",
      "confidence": "confirmed"
    },
    "websiteUrl": "https://www.holburne.org/planning-your-visit/garden-cafe"
  },
  {
    "id": "cafes-good-day-cafe-way-373546319",
    "type": "cafe",
    "name": "Good Day Cafe",
    "regionId": "bath",
    "regionLabel": "Bath",
    "locationLabel": "12 Upper Borough Walls, BA1 1RH",
    "lat": 51.38273,
    "lon": -2.360479,
    "wheelchairAccess": {
      "status": "yes",
      "confidence": "confirmed"
    },
    "websiteUrl": "https://www.gooddaycoffee.co.uk"
  },
  {
    "id": "cafes-hands-georgian-tearooms-node-3773998982",
    "type": "cafe",
    "name": "Hands Georgian Tearooms",
    "regionId": "bath",
    "regionLabel": "Bath",
    "locationLabel": "1 Abbey Street, Bath, BA1 1NN",
    "lat": 51.380806,
    "lon": -2.359058,
    "wheelchairAccess": {
      "status": "no",
      "confidence": "confirmed"
    },
    "websiteUrl": "https://handstearoom.co.uk"
  },
  {
    "id": "cafes-italian-pizzeria-cafe-84-way-673318953",
    "type": "cafe",
    "name": "Italian Pizzeria Cafe 84",
    "regionId": "bath",
    "regionLabel": "Bath",
    "locationLabel": "84 Lower Bristol Road, BA2 3BQ",
    "lat": 51.37981,
    "lon": -2.371481,
    "wheelchairAccess": {
      "status": "limited",
      "confidence": "confirmed"
    },
    "websiteUrl": "https://italianpizzeriacafe.co.uk"
  },
  {
    "id": "cafes-janes-cafe-way-1365003248",
    "type": "cafe",
    "name": "Jane's Cafe",
    "regionId": "bath",
    "regionLabel": "Bath",
    "locationLabel": "BA2 4AW",
    "lat": 51.382526,
    "lon": -2.358411,
    "wheelchairAccess": {
      "status": "yes",
      "confidence": "confirmed"
    },
    "websiteUrl": "https://www.bathguildhallmarket.co.uk/shops.html"
  },
  {
    "id": "cafes-joes-and-the-juice-way-178614806",
    "type": "cafe",
    "name": "Joes & The Juice",
    "regionId": "bath",
    "regionLabel": "Bath",
    "locationLabel": "11a-12 Stall Street, BA1 1QE",
    "lat": 51.380356,
    "lon": -2.359762,
    "wheelchairAccess": {
      "status": "limited",
      "confidence": "confirmed"
    },
    "websiteUrl": "https://www.joejuice.com/store/1189?market=6"
  },
  {
    "id": "cafes-knoops-way-90972046",
    "type": "cafe",
    "name": "Knoops",
    "regionId": "bath",
    "regionLabel": "Bath",
    "locationLabel": "21 Old Bond Street, BA1 2LA",
    "lat": 51.383258,
    "lon": -2.36145,
    "wheelchairAccess": {
      "status": "yes",
      "confidence": "confirmed"
    },
    "websiteUrl": "https://knoops.co.uk/pages/location-page-bath"
  },
  {
    "id": "cafes-komorebi-way-472542600",
    "type": "cafe",
    "name": "Komorebi",
    "regionId": "bath",
    "regionLabel": "Bath",
    "locationLabel": "7 Margaret's Buildings, BA1 2LP",
    "lat": 51.386776,
    "lon": -2.365687,
    "wheelchairAccess": {
      "status": "limited",
      "confidence": "confirmed"
    },
    "websiteUrl": "https://www.komorebi-bath.co.uk"
  },
  {
    "id": "cafes-landrace-bakery-way-120547003",
    "type": "cafe",
    "name": "Landrace Bakery",
    "regionId": "bath",
    "regionLabel": "Bath",
    "locationLabel": "61 Walcot Street, Bath, BA1 5BN",
    "lat": 51.385915,
    "lon": -2.359915,
    "wheelchairAccess": {
      "status": "no",
      "confidence": "confirmed"
    },
    "websiteUrl": "https://landracebakery.com"
  },
  {
    "id": "cafes-mjolk-way-373343732",
    "type": "cafe",
    "name": "Mjolk",
    "regionId": "bath",
    "regionLabel": "Bath",
    "locationLabel": "13 Abbey Churchyard, BA1 1LY",
    "lat": 51.381516,
    "lon": -2.359639,
    "wheelchairAccess": {
      "status": "no",
      "confidence": "confirmed"
    },
    "websiteUrl": "https://mjolkshop.square.site"
  },
  {
    "id": "cafes-mokoko-node-10289529196",
    "type": "cafe",
    "name": "Mokoko",
    "regionId": "bath",
    "regionLabel": "Bath",
    "locationLabel": "2 Foundry Lane, Bath, BA2 3GZ",
    "lat": 51.378596,
    "lon": -2.365506,
    "outdoorArea": {
      "type": "outdoor-seating",
      "confidence": "confirmed"
    },
    "websiteUrl": "https://mokokobakery.com/mokoko-locations/newark-works-bath"
  },
  {
    "id": "cafes-morrisons-cafe-node-4303484109",
    "type": "cafe",
    "name": "Morrisons Cafe",
    "regionId": "bath",
    "regionLabel": "Bath",
    "locationLabel": "BA1 6AE",
    "lat": 51.391241,
    "lon": -2.350437,
    "websiteUrl": "https://my.morrisons.com/storefinder/320/bath"
  },
  {
    "id": "cafes-music-workshop-coffeehouse-way-1366247099",
    "type": "cafe",
    "name": "Music Workshop Coffeehouse",
    "regionId": "bath",
    "regionLabel": "Bath",
    "locationLabel": "7c, Bath, BA1 1JB",
    "lat": 51.381698,
    "lon": -2.366735,
    "websiteUrl": "https://www.musicworkshop.org.uk"
  },
  {
    "id": "cafes-my-cookie-dough-node-3132211099",
    "type": "cafe",
    "name": "My Cookie Dough",
    "regionId": "bath",
    "regionLabel": "Bath",
    "locationLabel": "7 Dorchester Street, BA1 1SS",
    "lat": 51.378062,
    "lon": -2.358307,
    "wheelchairAccess": {
      "status": "yes",
      "confidence": "confirmed"
    },
    "websiteUrl": "https://www.mycookiedough.com"
  },
  {
    "id": "cafes-one-way-490724319",
    "type": "cafe",
    "name": "One",
    "regionId": "bath",
    "regionLabel": "Bath",
    "locationLabel": "1 John Street, BA1 2JL",
    "lat": 51.383309,
    "lon": -2.362079,
    "websiteUrl": "https://www.one-cafe.co.uk"
  },
  {
    "id": "cafes-palette-way-121675882",
    "type": "cafe",
    "name": "Palette",
    "regionId": "bath",
    "regionLabel": "Bath",
    "locationLabel": "98 Walcot Street, BA1 5BG",
    "lat": 51.386618,
    "lon": -2.359323,
    "websiteUrl": "https://www.palettable.co.uk"
  },
  {
    "id": "cafes-papawcha-way-373546355",
    "type": "cafe",
    "name": "Papawcha",
    "regionId": "bath",
    "regionLabel": "Bath",
    "locationLabel": "6 Cheap Street, BA1 1NE",
    "lat": 51.381719,
    "lon": -2.359707,
    "websiteUrl": "https://www.papawcha.co.uk"
  },
  {
    "id": "cafes-pavilion-cafe-node-10162556008",
    "type": "cafe",
    "name": "Pavilion café",
    "regionId": "bath",
    "regionLabel": "Bath",
    "locationLabel": "Claverton Down, BA2 7AY",
    "lat": 51.378006,
    "lon": -2.325984,
    "wheelchairAccess": {
      "status": "yes",
      "confidence": "confirmed"
    },
    "websiteUrl": "https://www.bath.ac.uk/locations/pavilion-cafe"
  },
  {
    "id": "cafes-picnic-way-431533365",
    "type": "cafe",
    "name": "Picnic",
    "regionId": "bath",
    "regionLabel": "Bath",
    "locationLabel": "9 Saracen Street, BA1 5BR",
    "lat": 51.384577,
    "lon": -2.359798,
    "wheelchairAccess": {
      "status": "no",
      "confidence": "confirmed"
    },
    "websiteUrl": "https://picniccoffee.co.uk"
  },
  {
    "id": "cafes-planteatlicious-node-3750602462",
    "type": "cafe",
    "name": "PlantEatLicious",
    "regionId": "bath",
    "regionLabel": "Bath",
    "locationLabel": "Lower Borough Walls, Bath, BA1 1QR",
    "lat": 51.379618,
    "lon": -2.360398,
    "wheelchairAccess": {
      "status": "no",
      "confidence": "confirmed"
    },
    "websiteUrl": "https://www.planteatlicious.com"
  },
  {
    "id": "cafes-rainbowls-way-474927601",
    "type": "cafe",
    "name": "Rainbowls",
    "regionId": "bath",
    "regionLabel": "Bath",
    "locationLabel": "12a Old Bond Street, BA1 1BP",
    "lat": 51.382597,
    "lon": -2.361162,
    "wheelchairAccess": {
      "status": "no",
      "confidence": "confirmed"
    },
    "websiteUrl": "https://www.rainbowls.co.uk"
  },
  {
    "id": "cafes-rosarios-cafe-way-507525117",
    "type": "cafe",
    "name": "Rosario's Cafe",
    "regionId": "bath",
    "regionLabel": "Bath",
    "locationLabel": "5 Northumberland Place, BA1 5AR",
    "lat": 51.382286,
    "lon": -2.359693,
    "wheelchairAccess": {
      "status": "no",
      "confidence": "confirmed"
    },
    "websiteUrl": "https://www.rosarioscafe.co.uk"
  },
  {
    "id": "cafes-sally-anns-cafe-node-4310806629",
    "type": "cafe",
    "name": "Sally Ann's Cafe",
    "regionId": "bath",
    "regionLabel": "Bath",
    "locationLabel": "BA1 1XE",
    "lat": 51.381334,
    "lon": -2.365589,
    "wheelchairAccess": {
      "status": "yes",
      "confidence": "confirmed"
    },
    "websiteUrl": "https://www.salvationarmy.org.uk/bath-citadel"
  },
  {
    "id": "cafes-same-same-but-different-way-489856541",
    "type": "cafe",
    "name": "Same Same, But Different",
    "regionId": "bath",
    "regionLabel": "Bath",
    "locationLabel": "7a Bartlett Street, Bath, BA1 2ED",
    "lat": 51.385234,
    "lon": -2.361529,
    "outdoorArea": {
      "type": "outdoor-seating",
      "confidence": "confirmed"
    },
    "wheelchairAccess": {
      "status": "yes",
      "confidence": "confirmed"
    },
    "websiteUrl": "https://same-same.co.uk"
  },
  {
    "id": "cafes-society-cafe-way-308124421",
    "type": "cafe",
    "name": "Society Cafe",
    "regionId": "bath",
    "regionLabel": "Bath",
    "locationLabel": "4-5 Kingsmead Square, Bath, BA1 2AB",
    "lat": 51.381009,
    "lon": -2.363118,
    "outdoorArea": {
      "type": "outdoor-seating",
      "confidence": "confirmed"
    },
    "websiteUrl": "https://www.society-cafe.com"
  },
  {
    "id": "cafes-somer-node-4820635770",
    "type": "cafe",
    "name": "Somer",
    "regionId": "bath",
    "regionLabel": "Bath",
    "locationLabel": "6 Bartlett Street, Bath, BA1 2QZ",
    "lat": 51.385667,
    "lon": -2.361775,
    "websiteUrl": "https://www.bathspa.ac.uk/news-and-events/news/2025/somer-store-opens"
  },
  {
    "id": "cafes-sonder-way-456121845",
    "type": "cafe",
    "name": "Sonder",
    "regionId": "bath",
    "regionLabel": "Bath",
    "locationLabel": "14 Green Street, BA1 2JZ",
    "lat": 51.383329,
    "lon": -2.360378,
    "wheelchairAccess": {
      "status": "no",
      "confidence": "confirmed"
    },
    "websiteUrl": "https://www.sondercoffee.co.uk"
  },
  {
    "id": "cafes-sports-cafe-node-4450320506",
    "type": "cafe",
    "name": "Sports Cafe",
    "regionId": "bath",
    "regionLabel": "Bath",
    "locationLabel": "BA2 7BT",
    "lat": 51.377721,
    "lon": -2.323282,
    "wheelchairAccess": {
      "status": "yes",
      "confidence": "confirmed"
    },
    "websiteUrl": "https://www.bath.ac.uk/locations/sports-cafe"
  },
  {
    "id": "cafes-st-mikes-cafe-node-4317063805",
    "type": "cafe",
    "name": "St Mike's Cafe",
    "regionId": "bath",
    "regionLabel": "Bath",
    "locationLabel": "(new tag), BA1 5LP",
    "lat": 51.383716,
    "lon": -2.359735,
    "wheelchairAccess": {
      "status": "yes",
      "confidence": "confirmed"
    },
    "websiteUrl": "https://www.stmichaelsbath.org.uk/st-mikes-cafe"
  },
  {
    "id": "cafes-starbucks-node-845940470",
    "type": "cafe",
    "name": "Starbucks",
    "regionId": "bath",
    "regionLabel": "Bath",
    "locationLabel": "Bath, BA1 1SU",
    "lat": 51.377581,
    "lon": -2.357298,
    "outdoorArea": {
      "type": "outdoor-seating",
      "confidence": "confirmed"
    },
    "wheelchairAccess": {
      "status": "yes",
      "confidence": "confirmed"
    },
    "websiteUrl": "https://www.starbucks.com/store-locator/store/1009228/bath-spa-station-platform-2-bath-spa-station-platform-1-bath-eng-ba-1-1-su-gb"
  },
  {
    "id": "cafes-starbucks-way-171379061",
    "type": "cafe",
    "name": "Starbucks",
    "regionId": "bath",
    "regionLabel": "Bath",
    "locationLabel": "Avon Street, BA1 1UN",
    "lat": 51.380798,
    "lon": -2.363159,
    "outdoorArea": {
      "type": "outdoor-seating",
      "confidence": "confirmed"
    },
    "wheelchairAccess": {
      "status": "yes",
      "confidence": "confirmed"
    },
    "websiteUrl": "https://www.starbucks.com/store-locator/store/1006241/bath-avon-street-unit-b-strahan-house-avon-street-bath-eng-ba-1-1-u"
  },
  {
    "id": "cafes-sugarcane-studio-way-447692224",
    "type": "cafe",
    "name": "Sugarcane Studio",
    "regionId": "bath",
    "regionLabel": "Bath",
    "locationLabel": "1 Grove Street, BA2 6PJ",
    "lat": 51.383571,
    "lon": -2.357279,
    "wheelchairAccess": {
      "status": "no",
      "confidence": "confirmed"
    },
    "websiteUrl": "https://www.sugarcanestudio.co.uk"
  },
  {
    "id": "cafes-sweet-little-things-way-380858303",
    "type": "cafe",
    "name": "Sweet Little Things",
    "regionId": "bath",
    "regionLabel": "Bath",
    "locationLabel": "5 Old Bond Street, BA1 1BW",
    "lat": 51.382923,
    "lon": -2.361054,
    "outdoorArea": {
      "type": "outdoor-seating",
      "confidence": "confirmed"
    },
    "websiteUrl": "https://www.sltbath.co.uk"
  },
  {
    "id": "cafes-tealith-bubble-tea-way-380826075",
    "type": "cafe",
    "name": "Tealith Bubble Tea",
    "regionId": "bath",
    "regionLabel": "Bath",
    "locationLabel": "20 Union Passage, Bath, BA1 1RD",
    "lat": 51.382065,
    "lon": -2.360102,
    "websiteUrl": "https://www.tealith.com"
  },
  {
    "id": "cafes-the-bath-bun-way-1256907101",
    "type": "cafe",
    "name": "The Bath Bun",
    "regionId": "bath",
    "regionLabel": "Bath",
    "locationLabel": "2a Abbey Green, BA1 1NW",
    "lat": 51.380584,
    "lon": -2.358637,
    "outdoorArea": {
      "type": "outdoor-seating",
      "confidence": "confirmed"
    },
    "wheelchairAccess": {
      "status": "no",
      "confidence": "confirmed"
    },
    "websiteUrl": "https://www.thebathbun.com"
  },
  {
    "id": "cafes-the-chelsea-cafe-way-491788540",
    "type": "cafe",
    "name": "The Chelsea Cafe",
    "regionId": "bath",
    "regionLabel": "Bath",
    "locationLabel": "8e Chelsea Road, BA1 3DU",
    "lat": 51.385463,
    "lon": -2.388666,
    "wheelchairAccess": {
      "status": "yes",
      "confidence": "confirmed"
    },
    "websiteUrl": "https://thechelseacafebath.tumblr.com"
  },
  {
    "id": "cafes-the-choux-box-patisserie-cafe-way-1484255391",
    "type": "cafe",
    "name": "The Choux Box Patisserie Cafe",
    "regionId": "bath",
    "regionLabel": "Bath",
    "locationLabel": "Entry Hill, BA2 5NA",
    "lat": 51.362192,
    "lon": -2.365816,
    "websiteUrl": "https://www.thechouxboxpatisserie.com"
  },
  {
    "id": "cafes-the-colombian-company-way-197194662",
    "type": "cafe",
    "name": "The Colombian Company",
    "regionId": "bath",
    "regionLabel": "Bath",
    "locationLabel": "6 Abbey Gate Street, BA1 1NP",
    "lat": 51.38031,
    "lon": -2.359001,
    "wheelchairAccess": {
      "status": "limited",
      "confidence": "confirmed"
    },
    "websiteUrl": "https://www.thecolombiancompany.com"
  },
  {
    "id": "cafes-the-colombian-company-way-456126420",
    "type": "cafe",
    "name": "The Colombian Company",
    "regionId": "bath",
    "regionLabel": "Bath",
    "locationLabel": "3 New Bond Street, BA1 1BL",
    "lat": 51.383138,
    "lon": -2.360925,
    "wheelchairAccess": {
      "status": "limited",
      "confidence": "confirmed"
    },
    "websiteUrl": "https://thecolombiancompany.com/our-locations"
  },
  {
    "id": "cafes-the-colombian-company-limited-way-452680656",
    "type": "cafe",
    "name": "The Colombian Company Limited",
    "regionId": "bath",
    "regionLabel": "Bath",
    "locationLabel": "9 Claverton Street, BA2 4LD",
    "lat": 51.376718,
    "lon": -2.355366,
    "wheelchairAccess": {
      "status": "limited",
      "confidence": "confirmed"
    },
    "websiteUrl": "https://thecolombiancompany.com"
  },
  {
    "id": "cafes-the-green-bird-cafe-way-120948359",
    "type": "cafe",
    "name": "The Green Bird Café",
    "regionId": "bath",
    "regionLabel": "Bath",
    "locationLabel": "11 Margaret's Buildings, Bath, BA1 2LP",
    "lat": 51.386832,
    "lon": -2.36591,
    "wheelchairAccess": {
      "status": "no",
      "confidence": "confirmed"
    },
    "websiteUrl": "https://www.greenbirdcafe.co.uk"
  },
  {
    "id": "cafes-the-green-rocket-way-373343744",
    "type": "cafe",
    "name": "The Green Rocket",
    "regionId": "bath",
    "regionLabel": "Bath",
    "locationLabel": "1 Pierrepont Street, BA1 1LB",
    "lat": 51.380655,
    "lon": -2.35701,
    "wheelchairAccess": {
      "status": "no",
      "confidence": "confirmed"
    },
    "websiteUrl": "https://thegreenrocket.co.uk"
  },
  {
    "id": "cafes-the-hub-cafe-node-6041515727",
    "type": "cafe",
    "name": "The Hub Cafe",
    "regionId": "bath",
    "regionLabel": "Bath",
    "locationLabel": "Mulberry Way, BA2 5BU",
    "lat": 51.362336,
    "lon": -2.354318,
    "websiteUrl": "https://www.mphub.co.uk"
  },
  {
    "id": "cafes-the-kingsmead-kitchen-way-915199882",
    "type": "cafe",
    "name": "The Kingsmead Kitchen",
    "regionId": "bath",
    "regionLabel": "Bath",
    "locationLabel": "1 Kingsmead Street, Bath, BA1 2AA",
    "lat": 51.381422,
    "lon": -2.363492,
    "wheelchairAccess": {
      "status": "limited",
      "confidence": "confirmed"
    },
    "websiteUrl": "https://kingsmeadkitchenbath.co.uk"
  },
  {
    "id": "cafes-the-larkhall-deli-way-116533272",
    "type": "cafe",
    "name": "The Larkhall Deli",
    "regionId": "bath",
    "regionLabel": "Bath",
    "locationLabel": "1 Upper Lambridge Street, BA1 6RY",
    "lat": 51.397314,
    "lon": -2.344988,
    "websiteUrl": "https://jjbeanos.com"
  },
  {
    "id": "cafes-the-mad-hatters-tea-party-way-373986074",
    "type": "cafe",
    "name": "The Mad Hatter's Tea Party",
    "regionId": "bath",
    "regionLabel": "Bath",
    "locationLabel": "5 Orange Grove, Bath, BA1 1LP",
    "lat": 51.381386,
    "lon": -2.358038,
    "wheelchairAccess": {
      "status": "yes",
      "confidence": "confirmed"
    },
    "websiteUrl": "https://www.madhattersbath.co.uk"
  },
  {
    "id": "cafes-the-provenist-node-6739957502",
    "type": "cafe",
    "name": "The Provenist",
    "regionId": "bath",
    "regionLabel": "Bath",
    "locationLabel": "Walcot Street, Bath, BA1 5BB",
    "lat": 51.385427,
    "lon": -2.359134,
    "websiteUrl": "https://www.theprovenist.com"
  },
  {
    "id": "cafes-the-tea-shed-way-356944423",
    "type": "cafe",
    "name": "The Tea Shed",
    "regionId": "bath",
    "regionLabel": "Bath",
    "locationLabel": "BA2 5AH",
    "lat": 51.369472,
    "lon": -2.343564,
    "websiteUrl": "https://www.nationaltrust.org.uk/prior-park-landscape-garden/features/eating-and-shopping-at-prior-park"
  },
  {
    "id": "cafes-the-terrace-cafe-node-4307280150",
    "type": "cafe",
    "name": "The Terrace Café",
    "regionId": "bath",
    "regionLabel": "Bath",
    "locationLabel": "Prior Park Road, BA2 4NF",
    "lat": 51.374406,
    "lon": -2.352081,
    "wheelchairAccess": {
      "status": "yes",
      "confidence": "confirmed"
    },
    "websiteUrl": "https://www.priorparkgardencentre.co.uk/cafe"
  },
  {
    "id": "cafes-thirsty-meeples-way-557081894",
    "type": "cafe",
    "name": "Thirsty Meeples",
    "regionId": "bath",
    "regionLabel": "Bath",
    "locationLabel": "39 Gay Street, BA1 2NT",
    "lat": 51.384125,
    "lon": -2.363146,
    "wheelchairAccess": {
      "status": "no",
      "confidence": "confirmed"
    },
    "websiteUrl": "https://thirstymeeples.co.uk/pages/bathcafe"
  },
  {
    "id": "cafes-toniq-cafe-way-314228807",
    "type": "cafe",
    "name": "Toniq Cafe",
    "regionId": "bath",
    "regionLabel": "Bath",
    "locationLabel": "14 George Street, BA1 2EN",
    "lat": 51.384804,
    "lon": -2.363098,
    "wheelchairAccess": {
      "status": "no",
      "confidence": "confirmed"
    },
    "websiteUrl": "https://www.toniqlife.com/cafe"
  },
  {
    "id": "cafes-treetop-cafe-node-11754550013",
    "type": "cafe",
    "name": "TreeTop Cafe",
    "regionId": "bath",
    "regionLabel": "Bath",
    "locationLabel": "Royal Avenue, BA1 2NR",
    "lat": 51.384954,
    "lon": -2.365504,
    "wheelchairAccess": {
      "status": "yes",
      "confidence": "confirmed"
    },
    "websiteUrl": "https://www.treetopcafebath.co.uk"
  },
  {
    "id": "cafes-watchhouse-way-373546322",
    "type": "cafe",
    "name": "WatchHouse",
    "regionId": "bath",
    "regionLabel": "Bath",
    "locationLabel": "8-10 Old Bond Street, BA1 1BW",
    "lat": 51.382704,
    "lon": -2.360955,
    "websiteUrl": "https://watchhouse.com/blogs/locations/bath"
  },
  {
    "id": "cafes-widcombe-deli-node-11405340061",
    "type": "cafe",
    "name": "Widcombe Deli",
    "regionId": "bath",
    "regionLabel": "Bath",
    "locationLabel": "20 Claverton Street, BA2 4LD",
    "lat": 51.376638,
    "lon": -2.354467,
    "wheelchairAccess": {
      "status": "limited",
      "confidence": "confirmed"
    },
    "websiteUrl": "https://jjbeanos.com"
  },
  {
    "id": "cafes-branching-out-node-8453123597",
    "type": "cafe",
    "name": "Branching Out",
    "regionId": "london",
    "regionLabel": "Beckenham",
    "locationLabel": "149 Croydon Road, Beckenham, BR3 3QH",
    "lat": 51.399117,
    "lon": -0.040433,
    "foodTags": {
      "tags": [
        "sandwich"
      ],
      "confidence": "confirmed"
    },
    "websiteUrl": "https://www.branchingoutshop.com"
  },
  {
    "id": "cafes-caffe-nero-node-389031673",
    "type": "cafe",
    "name": "Caffè Nero",
    "regionId": "london",
    "regionLabel": "Beckenham",
    "locationLabel": "164 High Street, Beckenham, BR3 1EW",
    "lat": 51.407569,
    "lon": -0.027644,
    "websiteUrl": "https://www.caffenero.com/uk/stores/beckenham"
  },
  {
    "id": "cafes-costa-node-13653097243",
    "type": "cafe",
    "name": "Costa",
    "regionId": "london",
    "regionLabel": "Beckenham",
    "locationLabel": "194-202 High Street, Beckenham, BR3 1EN",
    "lat": 51.406858,
    "lon": -0.028188,
    "websiteUrl": "https://www.costa.co.uk/stores/beckenham"
  },
  {
    "id": "cafes-crunch-node-13674110586",
    "type": "cafe",
    "name": "Crunch",
    "regionId": "london",
    "regionLabel": "Beckenham",
    "locationLabel": "242 High Street, Beckenham, BR3 1EN",
    "lat": 51.406604,
    "lon": -0.029635,
    "websiteUrl": "https://crunchbeckenham.co.uk"
  },
  {
    "id": "cafes-daisy-grey-way-1136507499",
    "type": "cafe",
    "name": "Daisy Grey",
    "regionId": "london",
    "regionLabel": "Beckenham",
    "locationLabel": "73E High Street, Beckenham, BR3 1AN",
    "lat": 51.407383,
    "lon": -0.025829,
    "websiteUrl": "https://www.daisygrey.co.uk/beckenham-high-streets-location-and-opening-times"
  },
  {
    "id": "cafes-piccolo-cafe-node-13652636602",
    "type": "cafe",
    "name": "Piccolo Cafe",
    "regionId": "london",
    "regionLabel": "Beckenham",
    "locationLabel": "106 High Street, Beckenham, BR3 1EB",
    "lat": 51.407783,
    "lon": -0.02569,
    "websiteUrl": "https://piccolocafes.co.uk"
  },
  {
    "id": "cafes-poached-node-12632010027",
    "type": "cafe",
    "name": "Poached",
    "regionId": "london",
    "regionLabel": "Beckenham",
    "locationLabel": "12a High Street, Beckenham, BR3 1AZ",
    "lat": 51.410554,
    "lon": -0.025033,
    "websiteUrl": "https://www.poachedrestaurants.co.uk"
  },
  {
    "id": "cafes-rendez-vous-node-13652455081",
    "type": "cafe",
    "name": "Rendez - Vous",
    "regionId": "london",
    "regionLabel": "Beckenham",
    "locationLabel": "94 High Street, Beckenham, BR3 1ED",
    "lat": 51.407987,
    "lon": -0.025486,
    "websiteUrl": "https://rendezvouscaffe.co.uk"
  },
  {
    "id": "cafes-shotsmiths-node-9953837717",
    "type": "cafe",
    "name": "Shotsmiths",
    "regionId": "london",
    "regionLabel": "Beckenham",
    "locationLabel": "73 Beckenham Road, Beckenham, BR3 4PR",
    "lat": 51.40864,
    "lon": -0.039835,
    "websiteUrl": "https://shotsmiths.com"
  },
  {
    "id": "cafes-sunrise-cafe-node-308066480",
    "type": "cafe",
    "name": "Sunrise Cafe",
    "regionId": "london",
    "regionLabel": "Beckenham",
    "locationLabel": "115 Croydon Road, Beckenham, BR3 3RA",
    "lat": 51.398894,
    "lon": -0.042671,
    "foodTags": {
      "tags": [
        "burger",
        "sandwich"
      ],
      "confidence": "confirmed"
    },
    "websiteUrl": "https://placejuice.com/sunrise-cafe-sjlenm0"
  },
  {
    "id": "cafes-bolt-deli-node-13509300128",
    "type": "cafe",
    "name": "Bolt Deli",
    "regionId": "belfast",
    "regionLabel": "Belfast",
    "locationLabel": "62 Boucher Road, BT12 6LR",
    "lat": 54.573235,
    "lon": -5.966722,
    "outdoorArea": {
      "type": "outdoor-seating",
      "confidence": "confirmed"
    },
    "wheelchairAccess": {
      "status": "yes",
      "confidence": "confirmed"
    },
    "websiteUrl": "https://www.boltdelibelfast.com"
  },
  {
    "id": "cafes-cafe-smart-node-3869043378",
    "type": "cafe",
    "name": "Cafe Smart",
    "regionId": "belfast",
    "regionLabel": "Belfast",
    "locationLabel": "Belfast",
    "lat": 54.600334,
    "lon": -5.875229,
    "websiteUrl": "https://cafesmart.co.uk"
  },
  {
    "id": "cafes-caffe-nero-node-3930463007",
    "type": "cafe",
    "name": "Caffè Nero",
    "regionId": "belfast",
    "regionLabel": "Belfast",
    "locationLabel": "10 Donegall Square West, BT1 6JH",
    "lat": 54.596587,
    "lon": -5.931719,
    "wheelchairAccess": {
      "status": "yes",
      "confidence": "confirmed"
    },
    "websiteUrl": "https://www.caffenero.com/uk/stores/belfast-donegall-sq"
  },
  {
    "id": "cafes-caffe-nero-node-5227982992",
    "type": "cafe",
    "name": "Caffè Nero",
    "regionId": "belfast",
    "regionLabel": "Belfast",
    "locationLabel": "376-378 Upper Newtownards Road, Belfast, BT4 3FB",
    "lat": 54.595326,
    "lon": -5.867362,
    "outdoorArea": {
      "type": "outdoor-seating",
      "confidence": "confirmed"
    },
    "websiteUrl": "https://www.caffenero.com/uk/stores/ballyhackamore"
  },
  {
    "id": "cafes-caffe-nero-node-6421702904",
    "type": "cafe",
    "name": "Caffè Nero",
    "regionId": "belfast",
    "regionLabel": "Belfast",
    "locationLabel": "1 Lanyon Place, Belfast, BT1 3LP",
    "lat": 54.596553,
    "lon": -5.920947,
    "outdoorArea": {
      "type": "outdoor-seating",
      "confidence": "confirmed"
    },
    "websiteUrl": "https://www.caffenero.com/uk/stores/belfast-lanyon-place"
  },
  {
    "id": "cafes-caffe-nero-node-7060790485",
    "type": "cafe",
    "name": "Caffè Nero",
    "regionId": "belfast",
    "regionLabel": "Belfast",
    "locationLabel": "Belfast",
    "lat": 54.592436,
    "lon": -5.926676,
    "websiteUrl": "https://www.caffenero.com/uk/stores/belfast-weavers"
  },
  {
    "id": "cafes-caffe-nero-node-10706839768",
    "type": "cafe",
    "name": "Caffè Nero",
    "regionId": "belfast",
    "regionLabel": "Belfast",
    "locationLabel": "Boucher Crescent, Belfast, BT12 6HU",
    "lat": 54.580209,
    "lon": -5.967045,
    "websiteUrl": "https://www.caffenero.com/uk/stores/belfast-boucher-road"
  },
  {
    "id": "cafes-caffe-nero-node-11309553951",
    "type": "cafe",
    "name": "Caffè Nero",
    "regionId": "belfast",
    "regionLabel": "Belfast",
    "locationLabel": "Belfast",
    "lat": 54.58606,
    "lon": -5.936285,
    "outdoorArea": {
      "type": "outdoor-seating",
      "confidence": "confirmed"
    },
    "websiteUrl": "https://www.caffenero.com/uk/stores/belfast-university-road"
  },
  {
    "id": "cafes-caffe-nero-node-11702139596",
    "type": "cafe",
    "name": "Caffè Nero",
    "regionId": "belfast",
    "regionLabel": "Belfast",
    "locationLabel": "Belfast",
    "lat": 54.594419,
    "lon": -5.934753,
    "websiteUrl": "https://www.caffenero.com/uk/stores/belfast-europa"
  },
  {
    "id": "cafes-caffe-nero-way-589260598",
    "type": "cafe",
    "name": "Caffè Nero",
    "regionId": "belfast",
    "regionLabel": "Belfast",
    "locationLabel": "48-50 Ann Street, Belfast, BT1 4EG",
    "lat": 54.599335,
    "lon": -5.925669,
    "outdoorArea": {
      "type": "outdoor-seating",
      "confidence": "confirmed"
    },
    "wheelchairAccess": {
      "status": "yes",
      "confidence": "confirmed"
    },
    "websiteUrl": "https://www.caffenero.com/uk/stores/belfast-ann-st"
  },
  {
    "id": "cafes-caffe-nero-way-611906947",
    "type": "cafe",
    "name": "Caffè Nero",
    "regionId": "belfast",
    "regionLabel": "Belfast",
    "locationLabel": "Belfast",
    "lat": 54.588329,
    "lon": -5.932879,
    "websiteUrl": "https://www.caffenero.com/uk/stores/belfast-botanic"
  },
  {
    "id": "cafes-caffe-nero-way-629977295",
    "type": "cafe",
    "name": "Caffè Nero",
    "regionId": "belfast",
    "regionLabel": "Belfast",
    "locationLabel": "Belfast",
    "lat": 54.655739,
    "lon": -5.91811,
    "websiteUrl": "https://www.caffenero.com/uk/stores/newtownabbey-abbey-centre"
  },
  {
    "id": "cafes-caffe-nero-way-1192112125",
    "type": "cafe",
    "name": "Caffè Nero",
    "regionId": "belfast",
    "regionLabel": "Belfast",
    "locationLabel": "377 Ormeau Road, Belfast, BT7 2FD",
    "lat": 54.577914,
    "lon": -5.919101,
    "outdoorArea": {
      "type": "outdoor-seating",
      "confidence": "confirmed"
    },
    "websiteUrl": "https://www.caffenero.com/uk/stores/belfast-ormeau-road"
  },
  {
    "id": "cafes-costa-coffee-node-12818746401",
    "type": "cafe",
    "name": "Costa Coffee",
    "regionId": "belfast",
    "regionLabel": "Belfast",
    "locationLabel": "Drumkeen Court, Belfast",
    "lat": 54.565896,
    "lon": -5.906955,
    "websiteUrl": "https://www.costa.co.uk"
  },
  {
    "id": "cafes-drip-node-13447220103",
    "type": "cafe",
    "name": "Drip",
    "regionId": "belfast",
    "regionLabel": "Belfast",
    "locationLabel": "332-338 Ormeau Road, Belfast, BT7 2GE",
    "lat": 54.575218,
    "lon": -5.916495,
    "websiteUrl": "https://dripbelfast.com"
  },
  {
    "id": "cafes-french-village-bakery-and-cafe-node-1301173918",
    "type": "cafe",
    "name": "French Village Bakery & Cafe",
    "regionId": "belfast",
    "regionLabel": "Belfast",
    "locationLabel": "99 Botanic Avenue, Belfast, BT7 1JN",
    "lat": 54.586283,
    "lon": -5.932473,
    "wheelchairAccess": {
      "status": "limited",
      "confidence": "confirmed"
    },
    "websiteUrl": "https://www.frenchvillagebakery.co.uk/where-to-buy.cfm"
  },
  {
    "id": "cafes-gong-cha-node-1301163135",
    "type": "cafe",
    "name": "Gong Cha",
    "regionId": "belfast",
    "regionLabel": "Belfast",
    "locationLabel": "68 Botanic Avenue, Belfast, BT7 1JR",
    "lat": 54.587425,
    "lon": -5.932472,
    "websiteUrl": "https://www.gong-cha.com"
  },
  {
    "id": "cafes-junction-node-1450326115",
    "type": "cafe",
    "name": "Junction",
    "regionId": "belfast",
    "regionLabel": "Belfast",
    "locationLabel": "Belfast",
    "lat": 54.584973,
    "lon": -5.933789,
    "websiteUrl": "https://www.junctionqueens.com"
  },
  {
    "id": "cafes-maggie-mays-node-10181169102",
    "type": "cafe",
    "name": "Maggie May's",
    "regionId": "belfast",
    "regionLabel": "Belfast",
    "locationLabel": "44 Castle Street, Belfast, BT1 1HB",
    "lat": 54.599085,
    "lon": -5.932127,
    "websiteUrl": "https://maggiemaysbelfast.com"
  },
  {
    "id": "cafes-phin-node-13744469093",
    "type": "cafe",
    "name": "Phin",
    "regionId": "belfast",
    "regionLabel": "Belfast",
    "locationLabel": "Belfast",
    "lat": 54.597341,
    "lon": -5.932366,
    "websiteUrl": "https://phinbelfast.com"
  },
  {
    "id": "cafes-phin-node-13744469094",
    "type": "cafe",
    "name": "PHIN",
    "regionId": "belfast",
    "regionLabel": "Belfast",
    "locationLabel": "300 Ormeau Road, Belfast, BT7 2GE",
    "lat": 54.57649,
    "lon": -5.917482,
    "websiteUrl": "https://www.phinbelfast.com"
  },
  {
    "id": "cafes-reboot-gaming-cafe-node-6328938287",
    "type": "cafe",
    "name": "Reboot Gaming Cafe",
    "regionId": "belfast",
    "regionLabel": "Belfast",
    "locationLabel": "92-96 Lisburn Road, Belfast, BT9 6AG",
    "lat": 54.585102,
    "lon": -5.94101,
    "websiteUrl": "https://rebootgamingcafe.co.uk"
  },
  {
    "id": "cafes-root-and-branch-coffee-roastery-node-10048269837",
    "type": "cafe",
    "name": "Root & Branch Coffee Roastery",
    "regionId": "belfast",
    "regionLabel": "Belfast",
    "locationLabel": "Belfast",
    "lat": 54.598718,
    "lon": -5.894311,
    "websiteUrl": "https://rootandbranch.coffee"
  },
  {
    "id": "cafes-simply-fish-and-chips-node-2096717959",
    "type": "cafe",
    "name": "Simply Fish and Chips",
    "regionId": "belfast",
    "regionLabel": "Belfast",
    "locationLabel": "Oxford Street, BT1 3LA",
    "lat": 54.596219,
    "lon": -5.921611,
    "websiteUrl": "https://www.simplyfishandchips.co.uk"
  },
  {
    "id": "cafes-sojourn-coffee-belfast-node-6282849826",
    "type": "cafe",
    "name": "Sojourn Coffee Belfast",
    "regionId": "belfast",
    "regionLabel": "Belfast",
    "locationLabel": "Belfast",
    "lat": 54.584514,
    "lon": -5.938304,
    "websiteUrl": "https://sojourncoffee.co.uk"
  },
  {
    "id": "cafes-starbucks-node-2612909755",
    "type": "cafe",
    "name": "Starbucks",
    "regionId": "belfast",
    "regionLabel": "Belfast",
    "locationLabel": "Boucher Crescent, Belfast, BT12 6HU",
    "lat": 54.581448,
    "lon": -5.965661,
    "websiteUrl": "https://www.starbucks.com/store-locator/store/1012239/boucher-unit-11-c-boucher-retail-park-boucher-crescent-bel"
  },
  {
    "id": "cafes-starbucks-node-5272192467",
    "type": "cafe",
    "name": "Starbucks",
    "regionId": "belfast",
    "regionLabel": "Belfast",
    "locationLabel": "Belfast, BT1 1DD",
    "lat": 54.600752,
    "lon": -5.931363,
    "wheelchairAccess": {
      "status": "yes",
      "confidence": "confirmed"
    },
    "websiteUrl": "https://www.starbucks.com/store-locator/store/1043557/castle-court-unit-34-c-castle-court-shopping-centre-royal-avenu"
  },
  {
    "id": "cafes-starbucks-node-5939213785",
    "type": "cafe",
    "name": "Starbucks",
    "regionId": "belfast",
    "regionLabel": "Belfast",
    "locationLabel": "4-8 Adelaide Street, Belfast, BT2 8GA",
    "lat": 54.595163,
    "lon": -5.92822,
    "websiteUrl": "https://www.starbucks.com/store-locator/store/1016161/harvester-house-harvester-house-adelaide-street-belfast-belfast-ni"
  },
  {
    "id": "cafes-starbucks-node-5939213787",
    "type": "cafe",
    "name": "Starbucks",
    "regionId": "belfast",
    "regionLabel": "Belfast",
    "locationLabel": "Belfast",
    "lat": 54.595168,
    "lon": -5.934278,
    "websiteUrl": "https://www.starbucks.com/store-locator/store/1011572/great-victoria-street-24-great-victoria-street-belfast-belfast-nir-bt-2-"
  },
  {
    "id": "cafes-starbucks-node-7289320586",
    "type": "cafe",
    "name": "Starbucks",
    "regionId": "belfast",
    "regionLabel": "Belfast",
    "locationLabel": "1 Victoria Square, Belfast, BT1 4QG",
    "lat": 54.598275,
    "lon": -5.924615,
    "websiteUrl": "https://www.starbucks.com/store-locator/store/1009133/belfast-victoria-square-ug-13-unit-38-ug-victoria-square-sc-1-victoria-square-be"
  },
  {
    "id": "cafes-starbucks-node-12178087286",
    "type": "cafe",
    "name": "Starbucks",
    "regionId": "belfast",
    "regionLabel": "Belfast",
    "locationLabel": "Belfast",
    "lat": 54.594179,
    "lon": -5.940232,
    "websiteUrl": "https://www.starbucks.co.uk/store-locator/84998-314740"
  },
  {
    "id": "cafes-starbucks-node-12818746301",
    "type": "cafe",
    "name": "Starbucks",
    "regionId": "belfast",
    "regionLabel": "Belfast",
    "locationLabel": "Unit 3 Upper Galwally, BT8 6FX",
    "lat": 54.564453,
    "lon": -5.908277,
    "websiteUrl": "https://www.starbucks.co.uk/store-locator/84671-314346/unit-3-forestside-sc"
  },
  {
    "id": "cafes-starbucks-node-13401965947",
    "type": "cafe",
    "name": "Starbucks",
    "regionId": "belfast",
    "regionLabel": "Belfast",
    "locationLabel": "Belfast",
    "lat": 54.611601,
    "lon": -5.955875,
    "outdoorArea": {
      "type": "outdoor-seating",
      "confidence": "confirmed"
    },
    "websiteUrl": "https://www.starbucks.com"
  },
  {
    "id": "cafes-town-square-way-613157871",
    "type": "cafe",
    "name": "Town Square",
    "regionId": "belfast",
    "regionLabel": "Belfast",
    "locationLabel": "45 Botanic Avenue, Belfast, Antrim, BT7 1HB",
    "lat": 54.588129,
    "lon": -5.933375,
    "websiteUrl": "https://www.townsquarebelfast.com"
  },
  {
    "id": "cafes-trait-node-11920208549",
    "type": "cafe",
    "name": "Trait",
    "regionId": "belfast",
    "regionLabel": "Belfast",
    "locationLabel": "Belfast",
    "lat": 54.596835,
    "lon": -5.934411,
    "websiteUrl": "https://www.traitcoffee.co.uk/collegesqe"
  },
  {
    "id": "cafes-starbucks-way-965766019",
    "type": "cafe",
    "name": "Starbucks",
    "regionId": "london",
    "regionLabel": "Bexleyheath",
    "locationLabel": "85 Broadway, Bexleyheath, DA6 7JN",
    "lat": 51.456269,
    "lon": 0.14578,
    "websiteUrl": "https://www.starbucks.com/store-locator/store/2440/bexleyheath-broadway-shoppin-broadway-shopping-centre-bexleyheath-eng-da-6-7-jn"
  },
  {
    "id": "cafes-caffe-cream-node-1775567481",
    "type": "cafe",
    "name": "Caffe Cream",
    "regionId": "liverpool",
    "regionLabel": "Birkenhead",
    "locationLabel": "Park Drive, Birkenhead, CH41 4HY",
    "lat": 53.3953,
    "lon": -3.03879,
    "outdoorArea": {
      "type": "outdoor-seating",
      "confidence": "confirmed"
    },
    "wheelchairAccess": {
      "status": "yes",
      "confidence": "confirmed"
    },
    "websiteUrl": "https://www.caffecream.co.uk"
  },
  {
    "id": "cafes-indigo-node-12020159970",
    "type": "cafe",
    "name": "Indigo",
    "regionId": "liverpool",
    "regionLabel": "Birkenhead",
    "locationLabel": "136 Bedford Road, Birkenhead, Merseyside, CH42 2AS",
    "lat": 53.372852,
    "lon": -3.00798,
    "websiteUrl": "https://www.indigorockferry.com"
  },
  {
    "id": "cafes-black-sheep-coffee-node-9686118561",
    "type": "cafe",
    "name": "Black Sheep Coffee",
    "regionId": "birmingham",
    "regionLabel": "Birmingham",
    "locationLabel": "160 Wharfside Street, Birmingham, B1 1RL",
    "lat": 52.475465,
    "lon": -1.905885,
    "websiteUrl": "https://blacksheepcoffee.co.uk/blogs/locations/ac-hotel-birmingham"
  },
  {
    "id": "cafes-blow-water-node-3893540681",
    "type": "cafe",
    "name": "Blow Water",
    "regionId": "birmingham",
    "regionLabel": "Birmingham",
    "locationLabel": "Birmingham",
    "lat": 52.434428,
    "lon": -1.891832,
    "websiteUrl": "https://www.blowwater.co"
  },
  {
    "id": "cafes-breakfast-n-brunch-node-968790821",
    "type": "cafe",
    "name": "Breakfast N Brunch",
    "regionId": "birmingham",
    "regionLabel": "Birmingham",
    "locationLabel": "101 Thornbridge Avenue, Birmingham, B42 2AB",
    "lat": 52.535584,
    "lon": -1.905563,
    "wheelchairAccess": {
      "status": "limited",
      "confidence": "confirmed"
    },
    "websiteUrl": "https://www.breakfastnbrunch.co.uk/greatbarr"
  },
  {
    "id": "cafes-brig-cafe-at-the-warehouse-node-81440685",
    "type": "cafe",
    "name": "BRIG Café at The Warehouse",
    "regionId": "birmingham",
    "regionLabel": "Birmingham",
    "locationLabel": "54-57 Allison Street, Birmingham, B5 5TH",
    "lat": 52.478423,
    "lon": -1.889577,
    "wheelchairAccess": {
      "status": "yes",
      "confidence": "confirmed"
    },
    "websiteUrl": "https://www.wearebrig.co.uk/brig-cafe-at-the-warehouse"
  },
  {
    "id": "cafes-caffe-nero-node-2535904124",
    "type": "cafe",
    "name": "Caffè Nero",
    "regionId": "birmingham",
    "regionLabel": "Birmingham",
    "locationLabel": "Birmingham",
    "lat": 52.476704,
    "lon": -1.896536,
    "websiteUrl": "https://www.caffenero.com/uk/stores/birmingham-bullring"
  },
  {
    "id": "cafes-caffe-nero-node-9963976678",
    "type": "cafe",
    "name": "Caffè Nero",
    "regionId": "birmingham",
    "regionLabel": "Birmingham",
    "locationLabel": "4 Brindley Place, Birmingham, B1 2JB",
    "lat": 52.478235,
    "lon": -1.913981,
    "outdoorArea": {
      "type": "outdoor-seating",
      "confidence": "confirmed"
    },
    "wheelchairAccess": {
      "status": "yes",
      "confidence": "confirmed"
    },
    "websiteUrl": "https://www.caffenero.com/uk/stores/birmingham-brindleyplace"
  },
  {
    "id": "cafes-caffe-nero-way-162580318",
    "type": "cafe",
    "name": "Caffè Nero",
    "regionId": "birmingham",
    "regionLabel": "Birmingham",
    "locationLabel": "74 Corporation Street, Birmingham, B2 4UQ",
    "lat": 52.480757,
    "lon": -1.895621,
    "websiteUrl": "https://www.caffenero.com/uk/stores/birmingham-corporation-st"
  },
  {
    "id": "cafes-caffe-nero-way-317697216",
    "type": "cafe",
    "name": "Caffè Nero",
    "regionId": "birmingham",
    "regionLabel": "Birmingham",
    "locationLabel": "143 High Street, Harborne, B17 9NP",
    "lat": 52.458962,
    "lon": -1.949095,
    "websiteUrl": "https://www.caffenero.com/uk/stores/harborne"
  },
  {
    "id": "cafes-centenary-lounge-node-1785327106",
    "type": "cafe",
    "name": "Centenary Lounge",
    "regionId": "birmingham",
    "regionLabel": "Birmingham",
    "locationLabel": "Moor Street, Birmingham, B4 7UL",
    "lat": 52.478802,
    "lon": -1.892698,
    "wheelchairAccess": {
      "status": "yes",
      "confidence": "confirmed"
    },
    "websiteUrl": "https://www.centenarylounge.com"
  },
  {
    "id": "cafes-chai-and-crumbs-node-2590963416",
    "type": "cafe",
    "name": "Chai & Crumbs",
    "regionId": "birmingham",
    "regionLabel": "Birmingham",
    "locationLabel": "2 Waterfront Walk, Birmingham, B1 1SZ",
    "lat": 52.475629,
    "lon": -1.908451,
    "websiteUrl": "https://www.chaiandcrumbs.co.uk"
  },
  {
    "id": "cafes-chance-and-counters-node-7156475185",
    "type": "cafe",
    "name": "Chance & Counters",
    "regionId": "birmingham",
    "regionLabel": "Birmingham",
    "locationLabel": "Gibb Street, Birmingham, B9 4BG",
    "lat": 52.475458,
    "lon": -1.884368,
    "outdoorArea": {
      "type": "outdoor-seating",
      "confidence": "confirmed"
    },
    "websiteUrl": "https://www.chanceandcounters.com"
  },
  {
    "id": "cafes-chapel-cafe-node-4072530469",
    "type": "cafe",
    "name": "Chapel Café",
    "regionId": "birmingham",
    "regionLabel": "Birmingham",
    "locationLabel": "445 Bearwood Road, B66 4DH",
    "lat": 52.477715,
    "lon": -1.969926,
    "websiteUrl": "https://chapelcafe.org"
  },
  {
    "id": "cafes-coffee-1-way-85547649",
    "type": "cafe",
    "name": "Coffee#1",
    "regionId": "birmingham",
    "regionLabel": "Birmingham",
    "locationLabel": "Alcester Road South, Birmingham, B14 7JJ",
    "lat": 52.43239,
    "lon": -1.89274,
    "websiteUrl": "https://www.coffee1.co.uk/locations/kings-heath"
  },
  {
    "id": "cafes-costa-node-6055073401",
    "type": "cafe",
    "name": "Costa",
    "regionId": "birmingham",
    "regionLabel": "Birmingham",
    "locationLabel": "Selly Oak Shopping Park",
    "lat": 52.44439,
    "lon": -1.940281,
    "websiteUrl": "https://www.costa.co.uk"
  },
  {
    "id": "cafes-costa-node-6443261685",
    "type": "cafe",
    "name": "Costa",
    "regionId": "birmingham",
    "regionLabel": "Birmingham",
    "locationLabel": "579 Bearwood Road, B66 4BH",
    "lat": 52.474646,
    "lon": -1.969023,
    "outdoorArea": {
      "type": "outdoor-seating",
      "confidence": "confirmed"
    },
    "websiteUrl": "https://www.costa.co.uk/?utm_source=test"
  },
  {
    "id": "cafes-costa-drive-thru-way-880747836",
    "type": "cafe",
    "name": "Costa Drive Thru",
    "regionId": "birmingham",
    "regionLabel": "Birmingham",
    "locationLabel": "571 Pershore Road, Birmingham, B29 7DF",
    "lat": 52.449604,
    "lon": -1.912031,
    "outdoorArea": {
      "type": "outdoor-seating",
      "confidence": "confirmed"
    },
    "wheelchairAccess": {
      "status": "yes",
      "confidence": "confirmed"
    },
    "websiteUrl": "https://www.costa.co.uk"
  },
  {
    "id": "cafes-donuts-n-chai-way-1150922675",
    "type": "cafe",
    "name": "Donuts N Chai",
    "regionId": "birmingham",
    "regionLabel": "Birmingham",
    "locationLabel": "88 Lower Tower Street, Birmingham, B19 3NL",
    "lat": 52.490138,
    "lon": -1.895522,
    "websiteUrl": "https://donutsnchai.co.uk/d6375ce5-59fc-4be3-981b-b5d9f9c635c2"
  },
  {
    "id": "cafes-gorilla-coffee-cafe-node-356614176",
    "type": "cafe",
    "name": "Gorilla Coffee Cafe",
    "regionId": "birmingham",
    "regionLabel": "Birmingham",
    "locationLabel": "6 Brindley Place, Birmingham, B1 2JB",
    "lat": 52.477585,
    "lon": -1.913594,
    "outdoorArea": {
      "type": "outdoor-seating",
      "confidence": "confirmed"
    },
    "websiteUrl": "https://gorillacoffee.co.uk"
  },
  {
    "id": "cafes-grounded-st-pauls-node-12064966369",
    "type": "cafe",
    "name": "grounded. St Paul's",
    "regionId": "birmingham",
    "regionLabel": "Birmingham",
    "locationLabel": "55 Saint Paul's Square, Birmingham, B3 1QS",
    "lat": 52.48445,
    "lon": -1.906056,
    "outdoorArea": {
      "type": "outdoor-seating",
      "confidence": "confirmed"
    },
    "wheelchairAccess": {
      "status": "limited",
      "confidence": "confirmed"
    },
    "websiteUrl": "https://groundedcafe.co.uk"
  },
  {
    "id": "cafes-hello-cafe-node-12770453883",
    "type": "cafe",
    "name": "Hello Café",
    "regionId": "birmingham",
    "regionLabel": "Birmingham",
    "locationLabel": "596 Bearwood Road",
    "lat": 52.473247,
    "lon": -1.968867,
    "outdoorArea": {
      "type": "outdoor-seating",
      "confidence": "confirmed"
    },
    "websiteUrl": "https://hellocafe.co.uk"
  },
  {
    "id": "cafes-hey-brew-espresso-node-2782012388",
    "type": "cafe",
    "name": "Hey Brew Espresso",
    "regionId": "birmingham",
    "regionLabel": "Birmingham",
    "locationLabel": "552-554 Bristol Road, Birmingham, B29 6BD",
    "lat": 52.445759,
    "lon": -1.932887,
    "websiteUrl": "https://www.heybrew.co.uk"
  },
  {
    "id": "cafes-java-roastery-way-87356445",
    "type": "cafe",
    "name": "Java Roastery",
    "regionId": "birmingham",
    "regionLabel": "Birmingham",
    "locationLabel": "122-124 Colmore Row, Birmingham, B3 3AP",
    "lat": 52.48024,
    "lon": -1.901812,
    "foodTags": {
      "tags": [
        "sandwich"
      ],
      "confidence": "confirmed"
    },
    "websiteUrl": "https://javaroastery.co.uk"
  },
  {
    "id": "cafes-kitty-cafe-node-3758952492",
    "type": "cafe",
    "name": "Kitty Cafe",
    "regionId": "birmingham",
    "regionLabel": "Birmingham",
    "locationLabel": "Stephenson Place, Birmingham, B2 4BF",
    "lat": 52.478318,
    "lon": -1.899392,
    "websiteUrl": "https://www.kittycafe.co.uk"
  },
  {
    "id": "cafes-marlboro-cafe-node-7157189685",
    "type": "cafe",
    "name": "Marlboro Cafe",
    "regionId": "birmingham",
    "regionLabel": "Birmingham",
    "locationLabel": "60 Greenholm Road, Birmingham, B44 8HL",
    "lat": 52.535467,
    "lon": -1.892914,
    "websiteUrl": "https://marlborocafebirmingham.cafecityguide.website"
  },
  {
    "id": "cafes-medicine-node-1272977501",
    "type": "cafe",
    "name": "Medicine",
    "regionId": "birmingham",
    "regionLabel": "Birmingham",
    "locationLabel": "66-69 New Street, Birmingham, B2 4DU",
    "lat": 52.479511,
    "lon": -1.901685,
    "websiteUrl": "https://medicinebakery.co.uk"
  },
  {
    "id": "cafes-montys-node-12435645489",
    "type": "cafe",
    "name": "Monty's",
    "regionId": "birmingham",
    "regionLabel": "Birmingham",
    "locationLabel": "1 Snow Hill, Birmingham, B4 6GH",
    "lat": 52.483503,
    "lon": -1.897866,
    "foodTags": {
      "tags": [
        "sandwich"
      ],
      "confidence": "confirmed"
    },
    "websiteUrl": "https://www.montysdeli.co.uk"
  },
  {
    "id": "cafes-new-heights-community-cafe-node-10760217612",
    "type": "cafe",
    "name": "New Heights Community Cafe",
    "regionId": "birmingham",
    "regionLabel": "Birmingham",
    "locationLabel": "124 Warren Farm Road, Birmingham, B44 0QN",
    "lat": 52.543317,
    "lon": -1.878857,
    "websiteUrl": "https://new-heights.org.uk"
  },
  {
    "id": "cafes-pause-node-13547454152",
    "type": "cafe",
    "name": "Pause",
    "regionId": "birmingham",
    "regionLabel": "Birmingham",
    "locationLabel": "56 Poplar Road, Birmingham, B14 7AG",
    "lat": 52.43635,
    "lon": -1.89029,
    "outdoorArea": {
      "type": "outdoor-seating",
      "confidence": "confirmed"
    },
    "websiteUrl": "https://www.pausecoffeeshopbakery.com"
  },
  {
    "id": "cafes-pippatopia-childrens-role-play-cafe-node-12802456424",
    "type": "cafe",
    "name": "Pippatopia Children’s Role Play Café",
    "regionId": "birmingham",
    "regionLabel": "Birmingham",
    "locationLabel": "Fenton Street",
    "lat": 52.500096,
    "lon": -1.97873,
    "websiteUrl": "https://www.pippatopia.co.uk"
  },
  {
    "id": "cafes-quarter-horse-coffee-roasters-node-4857256021",
    "type": "cafe",
    "name": "Quarter Horse Coffee Roasters",
    "regionId": "birmingham",
    "regionLabel": "Birmingham",
    "locationLabel": "88-90 Bristol Street, Birmingham, B5 7AH",
    "lat": 52.471589,
    "lon": -1.899452,
    "websiteUrl": "https://quarterhorsecoffee.com"
  },
  {
    "id": "cafes-saint-kitchen-node-330253868",
    "type": "cafe",
    "name": "Saint Kitchen",
    "regionId": "birmingham",
    "regionLabel": "Birmingham",
    "locationLabel": "Birmingham",
    "lat": 52.4846,
    "lon": -1.90531,
    "wheelchairAccess": {
      "status": "yes",
      "confidence": "confirmed"
    },
    "websiteUrl": "https://www.saintkitchen.com"
  },
  {
    "id": "cafes-silly-sausage-way-174636423",
    "type": "cafe",
    "name": "Silly Sausage",
    "regionId": "birmingham",
    "regionLabel": "Birmingham",
    "locationLabel": "Flaxley Road, Birmingham, B33 9AL",
    "lat": 52.48805,
    "lon": -1.809978,
    "websiteUrl": "https://sillysausagecafebirmingham.cafecityguide.website"
  },
  {
    "id": "cafes-sliced-n-diced-node-453661638",
    "type": "cafe",
    "name": "Sliced 'n' Diced",
    "regionId": "birmingham",
    "regionLabel": "Birmingham",
    "locationLabel": "850 Bristol Road, Birmingham, B29 6HW",
    "lat": 52.438761,
    "lon": -1.940405,
    "websiteUrl": "https://slicedndiced.uk"
  },
  {
    "id": "cafes-starbucks-node-1607781175",
    "type": "cafe",
    "name": "Starbucks",
    "regionId": "birmingham",
    "regionLabel": "Birmingham",
    "locationLabel": "Birmingham",
    "lat": 52.507972,
    "lon": -1.821457,
    "websiteUrl": "https://www.starbucks.com/store-locator/store/2840/birmingham-the-fort-shopping-birmingham-the-fort-restaura-unit-f-2-20-fort-park"
  },
  {
    "id": "cafes-starbucks-node-2517583479",
    "type": "cafe",
    "name": "Starbucks",
    "regionId": "birmingham",
    "regionLabel": "Birmingham",
    "locationLabel": "114-115 New Street, Birmingham, B2 4JH",
    "lat": 52.479097,
    "lon": -1.899328,
    "outdoorArea": {
      "type": "outdoor-seating",
      "confidence": "confirmed"
    },
    "wheelchairAccess": {
      "status": "yes",
      "confidence": "confirmed"
    },
    "websiteUrl": "https://www.starbucks.com/store-locator/store/2552/birmingham-new-street-114-115-new-street-birmingham-eng-b-2-4-jh-gb"
  },
  {
    "id": "cafes-starbucks-node-2535904302",
    "type": "cafe",
    "name": "Starbucks",
    "regionId": "birmingham",
    "regionLabel": "Birmingham",
    "locationLabel": "Bullring, Birmingham, B5 4EN",
    "lat": 52.47795,
    "lon": -1.893671,
    "websiteUrl": "https://www.starbucks.com/store-locator/store/2742/birmingham-bullring-upper-bullring-centre-birmingham-eng-b-5-4-en-gb"
  },
  {
    "id": "cafes-starbucks-node-2605488384",
    "type": "cafe",
    "name": "Starbucks",
    "regionId": "birmingham",
    "regionLabel": "Birmingham",
    "locationLabel": "8 Centenary Square, Birmingham, B1 2EA",
    "lat": 52.478918,
    "lon": -1.910276,
    "websiteUrl": "https://www.starbucks.com/store-locator/store/20044/birmingham-broad-street-the-broad-street-birmingham-eng-b-1-2-ea-gb"
  },
  {
    "id": "cafes-starbucks-node-2915316650",
    "type": "cafe",
    "name": "Starbucks",
    "regionId": "birmingham",
    "regionLabel": "Birmingham",
    "locationLabel": "Birmingham",
    "lat": 52.475514,
    "lon": -1.888699,
    "wheelchairAccess": {
      "status": "yes",
      "confidence": "confirmed"
    },
    "websiteUrl": "https://www.starbucks.com/store-locator/store/2855/birmingham-coach-station-spencer-house-birmingham-eng-b-5-6-dq-gb"
  },
  {
    "id": "cafes-starbucks-node-3406978066",
    "type": "cafe",
    "name": "Starbucks",
    "regionId": "birmingham",
    "regionLabel": "Birmingham",
    "locationLabel": "Birmingham",
    "lat": 52.471926,
    "lon": -1.922445,
    "websiteUrl": "https://www.starbucks.com/store-locator/store/1009013/birmingham-edgbaston-30-hagley-road-edgbaston-eng-b-16-8-pe-gb"
  },
  {
    "id": "cafes-starbucks-node-6055073394",
    "type": "cafe",
    "name": "Starbucks",
    "regionId": "birmingham",
    "regionLabel": "Birmingham",
    "locationLabel": "Birmingham",
    "lat": 52.444403,
    "lon": -1.939347,
    "outdoorArea": {
      "type": "outdoor-seating",
      "confidence": "confirmed"
    },
    "websiteUrl": "https://www.starbucks.com/store-locator/store/1043667/birmingham-selly-oak-sp-undefined-birmingham-eng-b-296-sn-gb"
  },
  {
    "id": "cafes-tea-pot-cafe-node-12801082714",
    "type": "cafe",
    "name": "Tea Pot Cafe",
    "regionId": "birmingham",
    "regionLabel": "Birmingham",
    "locationLabel": "291 High Street",
    "lat": 52.491423,
    "lon": -1.967833,
    "outdoorArea": {
      "type": "outdoor-seating",
      "confidence": "confirmed"
    },
    "websiteUrl": "https://teapotcafesmethwick.co.uk/?utm_source=google&utm_medium=pin&utm_content=website-button"
  },
  {
    "id": "cafes-the-highfield-way-77102220",
    "type": "cafe",
    "name": "The Highfield",
    "regionId": "birmingham",
    "regionLabel": "Birmingham",
    "locationLabel": "22 Highfield Road, Birmingham, B15 3DP",
    "lat": 52.468652,
    "lon": -1.922428,
    "outdoorArea": {
      "type": "outdoor-seating",
      "confidence": "confirmed"
    },
    "wheelchairAccess": {
      "status": "yes",
      "confidence": "confirmed"
    },
    "websiteUrl": "https://www.highfieldedgbaston.co.uk"
  },
  {
    "id": "cafes-the-soft-play-cafe-node-12842566195",
    "type": "cafe",
    "name": "The Soft Play Café",
    "regionId": "birmingham",
    "regionLabel": "Birmingham",
    "locationLabel": "1261 Pershore Road, Birmingham, B30 2XU",
    "lat": 52.430668,
    "lon": -1.920653,
    "foodTags": {
      "tags": [
        "sandwich"
      ],
      "confidence": "confirmed"
    },
    "websiteUrl": "https://thesoftplaycafebirmingham.co.uk"
  },
  {
    "id": "cafes-urban-coffee-company-node-1303843967",
    "type": "cafe",
    "name": "Urban Coffee Company",
    "regionId": "birmingham",
    "regionLabel": "Birmingham",
    "locationLabel": "Warstone Lane, Birmingham, B18 6NF",
    "lat": 52.487554,
    "lon": -1.911679,
    "websiteUrl": "https://www.urbancoffee.co.uk/emporiums/birmingham-jewellery-quarter"
  },
  {
    "id": "cafes-village-kitchen-node-9772519393",
    "type": "cafe",
    "name": "Village Kitchen",
    "regionId": "birmingham",
    "regionLabel": "Birmingham",
    "locationLabel": "8a Greenfield Crescent, Birmingham, B15 3BE",
    "lat": 52.470363,
    "lon": -1.922359,
    "outdoorArea": {
      "type": "outdoor-seating",
      "confidence": "confirmed"
    },
    "websiteUrl": "https://www.villagekitchen.online"
  },
  {
    "id": "cafes-waylands-yard-node-1098115323",
    "type": "cafe",
    "name": "Wayland's Yard",
    "regionId": "birmingham",
    "regionLabel": "Birmingham",
    "locationLabel": "42 Bull Street, Birmingham, B4 6AF",
    "lat": 52.482292,
    "lon": -1.896544,
    "websiteUrl": "https://www.waylandsyard.com/birmingham"
  },
  {
    "id": "cafes-baileys-cheese-and-charcuterie-node-13172581501",
    "type": "cafe",
    "name": "Bailey's Cheese & Charcuterie",
    "regionId": "blackpool",
    "regionLabel": "Blackpool",
    "locationLabel": "54 Clifton Street, Blackpool, FY1 1JP",
    "lat": 53.818936,
    "lon": -3.052726,
    "websiteUrl": "https://baileysblackpool.co.uk"
  },
  {
    "id": "cafes-cafe-meow-node-12329224982",
    "type": "cafe",
    "name": "Cafe Meow",
    "regionId": "blackpool",
    "regionLabel": "Blackpool",
    "locationLabel": "22 Birley Street, Blackpool, FY1 1DU",
    "lat": 53.818276,
    "lon": -3.052987,
    "websiteUrl": "https://cafemeow.co.uk"
  },
  {
    "id": "cafes-caffe-nero-node-4464922094",
    "type": "cafe",
    "name": "Caffè Nero",
    "regionId": "blackpool",
    "regionLabel": "Blackpool",
    "locationLabel": "Blackpool, FY1 4HU",
    "lat": 53.816549,
    "lon": -3.053864,
    "websiteUrl": "https://www.caffenero.com/uk/stores/blackpool"
  },
  {
    "id": "cafes-parks-art-deco-cafe-way-972747415",
    "type": "cafe",
    "name": "Parks Art Deco Cafe",
    "regionId": "blackpool",
    "regionLabel": "Blackpool",
    "locationLabel": "West Park Drive, Blackpool, FY3 9EQ",
    "lat": 53.815369,
    "lon": -3.024851,
    "outdoorArea": {
      "type": "outdoor-seating",
      "confidence": "confirmed"
    },
    "wheelchairAccess": {
      "status": "yes",
      "confidence": "confirmed"
    },
    "foodTags": {
      "tags": [
        "sandwich"
      ],
      "confidence": "confirmed"
    },
    "websiteUrl": "https://www.parks-artdecocafe.co.uk"
  },
  {
    "id": "cafes-starbucks-node-1598732309",
    "type": "cafe",
    "name": "Starbucks",
    "regionId": "blackpool",
    "regionLabel": "Blackpool",
    "locationLabel": "Blackpool, FY1 4RN",
    "lat": 53.816464,
    "lon": -3.054245,
    "wheelchairAccess": {
      "status": "limited",
      "confidence": "confirmed"
    },
    "websiteUrl": "https://www.starbucks.com/store-locator/store/1027450/blackpool-victoria-st-victoria-street-unit-29-hounds-hill-shopping-centr"
  },
  {
    "id": "cafes-starbucks-node-4572821518",
    "type": "cafe",
    "name": "Starbucks",
    "regionId": "blackpool",
    "regionLabel": "Blackpool",
    "locationLabel": "Blackpool, FY3 8LL",
    "lat": 53.812579,
    "lon": -3.011039,
    "websiteUrl": "https://www.starbucks.com/store-locator/store/20017/blackpool-village-hotel-east-park-drive-herons-reach-blackpool-eng-fy-3-8-"
  },
  {
    "id": "cafes-starbucks-node-6897551373",
    "type": "cafe",
    "name": "Starbucks",
    "regionId": "blackpool",
    "regionLabel": "Blackpool",
    "locationLabel": "Preston New Road, Blackpool, FY3 9TN",
    "lat": 53.802644,
    "lon": -3.007855,
    "websiteUrl": "https://www.starbucks.com/store-locator/store/1018645/blackpool-preston-new-road-preston-new-road-blackpool-eng-fy-3-9-tn-gb"
  },
  {
    "id": "cafes-coffee-latino-node-4431014805",
    "type": "cafe",
    "name": "Coffee Latino",
    "regionId": "newcastle",
    "regionLabel": "Blaydon On Tyne",
    "locationLabel": "Dunne Road, Blaydon On Tyne",
    "lat": 54.967645,
    "lon": -1.700501,
    "websiteUrl": "https://www.coffeelatino.co.uk"
  },
  {
    "id": "cafes-pumphreys-coffee-showroom-and-coffee-shop-node-12199754654",
    "type": "cafe",
    "name": "Pumphrey's Coffee Showroom and Coffee shop",
    "regionId": "newcastle",
    "regionLabel": "Blaydon-on-Tyne",
    "locationLabel": "Bridge Street, Blaydon-on-Tyne, NE21 4JJ",
    "lat": 54.966334,
    "lon": -1.720993,
    "outdoorArea": {
      "type": "outdoor-seating",
      "confidence": "confirmed"
    },
    "websiteUrl": "https://www.pumphreys-coffee.co.uk"
  },
  {
    "id": "cafes-sababa-node-10924089794",
    "type": "cafe",
    "name": "Sababa",
    "regionId": "london",
    "regionLabel": "Borehamwood",
    "locationLabel": "33-35 Shenley Road, Borehamwood, WD6 1AE",
    "lat": 51.654921,
    "lon": -0.277877,
    "outdoorArea": {
      "type": "outdoor-seating",
      "confidence": "confirmed"
    },
    "websiteUrl": "https://www.sababaa.uk"
  },
  {
    "id": "cafes-missing-bean-node-9689753489",
    "type": "cafe",
    "name": "Missing Bean",
    "regionId": "oxford",
    "regionLabel": "Botley",
    "locationLabel": "2 Church Way, Botley, OX2 9TH",
    "lat": 51.750846,
    "lon": -1.298173,
    "outdoorArea": {
      "type": "outdoor-seating",
      "confidence": "confirmed"
    },
    "foodTags": {
      "tags": [
        "sandwich"
      ],
      "confidence": "confirmed"
    },
    "websiteUrl": "https://www.themissingbean.co.uk/pages/botley-cafe"
  },
  {
    "id": "cafes-caffe-nero-way-120192608",
    "type": "cafe",
    "name": "Caffè Nero",
    "regionId": "bournemouth",
    "regionLabel": "Bournemouth",
    "locationLabel": "98-100 Commercial Road, BH2 5LR",
    "lat": 50.719894,
    "lon": -1.883596,
    "websiteUrl": "https://www.caffenero.com/uk/stores/bournemouth-commercial-rd"
  },
  {
    "id": "cafes-caffe-nero-way-128197514",
    "type": "cafe",
    "name": "Caffè Nero",
    "regionId": "bournemouth",
    "regionLabel": "Bournemouth",
    "locationLabel": "64,66 Old Christchurch Road, Bournemouth, BH1 1LL",
    "lat": 50.721224,
    "lon": -1.876233,
    "websiteUrl": "https://www.caffenero.com/uk/stores/bournemouth-christchurch"
  },
  {
    "id": "cafes-coffee-1-way-931373282",
    "type": "cafe",
    "name": "Coffee#1",
    "regionId": "bournemouth",
    "regionLabel": "Bournemouth",
    "locationLabel": "401 Wimborne Road, BH9 2AJ",
    "lat": 50.74242,
    "lon": -1.878617,
    "outdoorArea": {
      "type": "outdoor-seating",
      "confidence": "confirmed"
    },
    "websiteUrl": "https://www.coffee1.co.uk/locations/winton"
  },
  {
    "id": "cafes-conto-lounge-way-931373383",
    "type": "cafe",
    "name": "Conto Lounge",
    "regionId": "bournemouth",
    "regionLabel": "Bournemouth",
    "locationLabel": "418 Wimborne Road, Bournemouth, BH9 2HB",
    "lat": 50.742542,
    "lon": -1.879299,
    "websiteUrl": "https://thelounges.co.uk/conto"
  },
  {
    "id": "cafes-pause-cat-cafe-way-1209358262",
    "type": "cafe",
    "name": "Pause Cat Cafe",
    "regionId": "bournemouth",
    "regionLabel": "Bournemouth",
    "locationLabel": "119 Old Christchurch Road, Bournemouth, BH1 1EP",
    "lat": 50.722398,
    "lon": -1.874667,
    "websiteUrl": "https://pausecatcafe.co.uk"
  },
  {
    "id": "cafes-rockwater-way-222818641",
    "type": "cafe",
    "name": "Rockwater",
    "regionId": "bournemouth",
    "regionLabel": "Bournemouth",
    "locationLabel": "Bournemouth",
    "lat": 50.707004,
    "lon": -1.908262,
    "websiteUrl": "https://rockwater.uk/village"
  },
  {
    "id": "cafes-slades-park-pavilion-way-186013872",
    "type": "cafe",
    "name": "Slades Park Pavilion",
    "regionId": "bournemouth",
    "regionLabel": "Bournemouth",
    "locationLabel": "Bournemouth",
    "lat": 50.747751,
    "lon": -1.895344,
    "outdoorArea": {
      "type": "outdoor-seating",
      "confidence": "confirmed"
    },
    "wheelchairAccess": {
      "status": "yes",
      "confidence": "confirmed"
    },
    "foodTags": {
      "tags": [
        "sandwich"
      ],
      "confidence": "confirmed"
    },
    "websiteUrl": "https://www.activedorset.org/slades-pavilion"
  },
  {
    "id": "cafes-starbucks-node-8724712442",
    "type": "cafe",
    "name": "Starbucks",
    "regionId": "bournemouth",
    "regionLabel": "Bournemouth",
    "locationLabel": "69 Holdenhurst Road, BH8 8FT",
    "lat": 50.724241,
    "lon": -1.864375,
    "websiteUrl": "https://www.starbucks.com/store-locator/store/1011801/bournemouth-the-parlour-the-parlour-unit-2-lyme-regis-house-bournemouth-en"
  },
  {
    "id": "cafes-starbucks-node-13672339659",
    "type": "cafe",
    "name": "Starbucks",
    "regionId": "bournemouth",
    "regionLabel": "Bournemouth",
    "locationLabel": "5-7 Richmond Hill, BH2 6HE",
    "lat": 50.720542,
    "lon": -1.879198,
    "websiteUrl": "https://www.starbucks.com/store-locator/store/1007368/bournemouth-richmond-hill-unit-5-6-bristol-west-house-bournemouth-eng-bh-2-6"
  },
  {
    "id": "cafes-starbucks-way-114877489",
    "type": "cafe",
    "name": "Starbucks",
    "regionId": "bournemouth",
    "regionLabel": "Bournemouth",
    "locationLabel": "98 Poole Road, BH4 9EF",
    "lat": 50.723376,
    "lon": -1.903837,
    "websiteUrl": "https://www.starbucks.com/store-locator/store/1011808/westbourne-poole-road-98-poole-road-bournemouth-eng-bh-4-9-en-gb"
  },
  {
    "id": "cafes-caffe-nero-way-1148284919",
    "type": "cafe",
    "name": "Caffè Nero",
    "regionId": "bradford",
    "regionLabel": "Bradford",
    "locationLabel": "24 Market Street, Bradford, BD1 1LH",
    "lat": 53.793801,
    "lon": -1.752724,
    "websiteUrl": "https://www.caffenero.com/uk/stores/bradford"
  },
  {
    "id": "cafes-starbucks-node-9657826016",
    "type": "cafe",
    "name": "Starbucks",
    "regionId": "bradford",
    "regionLabel": "Bradford",
    "locationLabel": "Clayton Road, Bradford, BD7 2SG",
    "lat": 53.783647,
    "lon": -1.796992,
    "websiteUrl": "https://www.starbucks.com/store-locator/store/1023570/bradford-clayton-road-dt-unit-5-scots-works-clayton-road-bradford-eng-bd-7-"
  },
  {
    "id": "cafes-starbucks-way-1149961619",
    "type": "cafe",
    "name": "Starbucks",
    "regionId": "bradford",
    "regionLabel": "Bradford",
    "locationLabel": "Centenary Square, Bradford, BD1 1HY",
    "lat": 53.793096,
    "lon": -1.755108,
    "wheelchairAccess": {
      "status": "yes",
      "confidence": "confirmed"
    },
    "websiteUrl": "https://www.starbucks.com/store-locator/store/1013520/bradford-centenary-square-centenary-square-market-street-part-unit-c-bradfor"
  },
  {
    "id": "cafes-starbucks-way-1370693876",
    "type": "cafe",
    "name": "Starbucks",
    "regionId": "bradford",
    "regionLabel": "Bradford",
    "locationLabel": "Gain Lane, Bradford, BD3 7DW",
    "lat": 53.802508,
    "lon": -1.702462,
    "websiteUrl": "https://www.starbucks.com/store-locator/store/1027865/bradford-leeds-road-dt-leeds-road-bradford-eng-bd-3-7-dd-gb"
  },
  {
    "id": "cafes-the-refreshment-room-node-13728456333",
    "type": "cafe",
    "name": "The Refreshment Room",
    "regionId": "bradford",
    "regionLabel": "Bradford",
    "locationLabel": "Oak Lane, Bradford, BD9 4NS",
    "lat": 53.812282,
    "lon": -1.771437,
    "websiteUrl": "https://bradfordmuseums.org/cartwright-hall-art-gallery/cafe"
  },
  {
    "id": "cafes-tiffin-coffee-node-5966556594",
    "type": "cafe",
    "name": "Tiffin Coffee",
    "regionId": "bradford",
    "regionLabel": "Bradford",
    "locationLabel": "22 Bank Street, Bradford, BD1 1PR",
    "lat": 53.794169,
    "lon": -1.752739,
    "websiteUrl": "https://www.tiffincoffee.co.uk"
  },
  {
    "id": "cafes-caffe-nero-way-1408938605",
    "type": "cafe",
    "name": "Caffè Nero",
    "regionId": "london",
    "regionLabel": "Brentwood",
    "locationLabel": "28 High Street, Brentwood, CM14 4AB",
    "lat": 51.620576,
    "lon": 0.303891,
    "wheelchairAccess": {
      "status": "yes",
      "confidence": "confirmed"
    },
    "websiteUrl": "https://www.caffenero.com/uk/stores/brentwood"
  },
  {
    "id": "cafes-hey-joe-way-1411347029",
    "type": "cafe",
    "name": "Hey Joe",
    "regionId": "london",
    "regionLabel": "Brentwood",
    "locationLabel": "10 Ropers Yard, Brentwood, CM14 4FU",
    "lat": 51.619422,
    "lon": 0.300386,
    "websiteUrl": "https://heyjoemusic.co.uk"
  },
  {
    "id": "cafes-maxs-cafe-way-989304116",
    "type": "cafe",
    "name": "Max's Café",
    "regionId": "london",
    "regionLabel": "Brentwood",
    "locationLabel": "Sawyers Hall Lane, Brentwood, CM15 9BY",
    "lat": 51.630655,
    "lon": 0.301055,
    "websiteUrl": "https://hopefield.org.uk/visit/maxs-cafe"
  },
  {
    "id": "cafes-starbucks-node-1693229111",
    "type": "cafe",
    "name": "Starbucks",
    "regionId": "london",
    "regionLabel": "Brentwood",
    "locationLabel": "36A High Street, Brentwood, CM14 4AJ",
    "lat": 51.620241,
    "lon": 0.30279,
    "websiteUrl": "https://www.starbucks.com/store-locator/store/1012135/brentwood-high-street-36-b-high-street-brentwood-eng-cm-14-4-aj-gb"
  },